{"type":"FeatureCollection","features":[{"type":"Feature","geometry":{"type":"Point","coordinates":[10.7160479,59.9296625]},"properties":{"name":"Majorstuen (F)"}},{"type":"Feature","geometry":{"type":"Point","coordinates":[10.7641113,59.9478741]},"properties":{"name":"Nydalsveien"}},{"type":"Feature","geometry":{"type":"Point","coordinates":[10.6754387,59.9276662]},"properties":{"name":"Hoff terrasse"}},{"type":"Feature","geometry":{"type":"Point","coordinates":[10.640266,59.9144675]},"properties":{"name":"Lysaker bru"}},{"type":"Feature","geometry":{"type":"Point","coordinates":[10.7613053,59.9307562]},"properties":{"name":"Biermanns gate"}},{"type":"Feature","geometry":{"type":"Point","coordinates":[10.7989845,59.9178809]},"properties":{"name":"Valle"}},{"type":"Feature","geometry":{"type":"Point","coordinates":[10.7717523,59.9229952]},"properties":{"name":"Sofienberg"}},{"type":"Feature","geometry":{"type":"Point","coordinates":[10.777636,59.9658668]},"properties":{"name":"Stillatorvet"}},{"type":"Feature","geometry":{"type":"Point","coordinates":[10.9085043,59.9669462]},"properties":{"name":"Rommi"}},{"type":"Feature","geometry":{"type":"Point","coordinates":[10.9033972,59.96323]},"properties":{"name":"Sveiva"}},{"type":"Feature","geometry":{"type":"Point","coordinates":[10.8175726,59.9441055]},"properties":{"name":"Brobekk"}},{"type":"Feature","geometry":{"type":"Point","coordinates":[10.8340752,59.8820882]},"properties":{"name":"Bogerudmyra"}},{"type":"Feature","geometry":{"type":"Point","coordinates":[10.7871375,59.9149363]},"properties":{"name":""}},{"type":"Feature","geometry":{"type":"Point","coordinates":[10.7757564,59.8974803]},"properties":{"name":"Ekeberg Camping"}},{"type":"Feature","geometry":{"type":"Point","coordinates":[10.7598893,59.874618]},"properties":{"name":"Malmøysundet"}},{"type":"Feature","geometry":{"type":"Point","coordinates":[10.7342283,59.96388]},"properties":{"name":"Kringsjå"}},{"type":"Feature","geometry":{"type":"Point","coordinates":[10.7338018,59.729497]},"properties":{"name":"Nesset"}},{"type":"Feature","geometry":{"type":"Point","coordinates":[10.8111526,59.7679231]},"properties":{"name":"Greverud skole"}},{"type":"Feature","geometry":{"type":"Point","coordinates":[11.031652,60.0043129]},"properties":{"name":"Skedsmokorset"}},{"type":"Feature","geometry":{"type":"Point","coordinates":[10.9740323,59.9196843]},"properties":{"name":""}},{"type":"Feature","geometry":{"type":"Point","coordinates":[10.8654933,59.9280805]},"properties":{"name":"Trosterudkrysset"}},{"type":"Feature","geometry":{"type":"Point","coordinates":[10.8512826,59.9174604]},"properties":{"name":"Haugerudveien"}},{"type":"Feature","geometry":{"type":"Point","coordinates":[10.8601437,59.9105571]},"properties":{"name":"Krokstien"}},{"type":"Feature","geometry":{"type":"Point","coordinates":[10.8824484,59.7909834]},"properties":{"name":""}},{"type":"Feature","geometry":{"type":"Point","coordinates":[10.8814433,59.8020831]},"properties":{"name":""}},{"type":"Feature","geometry":{"type":"Point","coordinates":[10.8418487,59.7249403]},"properties":{"name":"Ski sykehus"}},{"type":"Feature","geometry":{"type":"Point","coordinates":[10.637781,59.6670631]},"properties":{"name":"Seiersten"}},{"type":"Feature","geometry":{"type":"Point","coordinates":[10.6338443,59.6633281]},"properties":{"name":"Grøndal"}},{"type":"Feature","geometry":{"type":"Point","coordinates":[10.694826,59.6902273]},"properties":{"name":"Billitt"}},{"type":"Feature","geometry":{"type":"Point","coordinates":[10.7874775,59.8180953]},"properties":{"name":"Trollåsveien"}},{"type":"Feature","geometry":{"type":"Point","coordinates":[10.6869245,59.9036061]},"properties":{"name":"Fredriksborg"}},{"type":"Feature","geometry":{"type":"Point","coordinates":[10.6789746,59.9012012]},"properties":{"name":"Frimurerhjemmet"}},{"type":"Feature","geometry":{"type":"Point","coordinates":[10.6877447,59.9016817]},"properties":{"name":"Langvik"}},{"type":"Feature","geometry":{"type":"Point","coordinates":[10.6946341,59.9018556]},"properties":{"name":"Herbernveien"}},{"type":"Feature","geometry":{"type":"Point","coordinates":[10.6464615,59.9626396]},"properties":{"name":"Himstadplassen"}},{"type":"Feature","geometry":{"type":"Point","coordinates":[10.642287,59.962061]},"properties":{"name":"Bogstad Camping"}},{"type":"Feature","geometry":{"type":"Point","coordinates":[10.934442,59.915527]},"properties":{"name":""}},{"type":"Feature","geometry":{"type":"Point","coordinates":[10.72201,59.9474802]},"properties":{"name":"Domus Athletica"}},{"type":"Feature","geometry":{"type":"Point","coordinates":[10.7727662,59.9401443]},"properties":{"name":"Nordpolen skole"}},{"type":"Feature","geometry":{"type":"Point","coordinates":[10.8012109,59.8724827]},"properties":{"name":"Ringshusveien"}},{"type":"Feature","geometry":{"type":"Point","coordinates":[10.767561,59.9490155]},"properties":{"name":"Nydalen T"}},{"type":"Feature","geometry":{"type":"Point","coordinates":[10.6794604,59.9449323]},"properties":{"name":"Holmendammen"}},{"type":"Feature","geometry":{"type":"Point","coordinates":[10.7796836,59.9122768]},"properties":{"name":"Kampen"}},{"type":"Feature","geometry":{"type":"Point","coordinates":[10.7773531,59.910086]},"properties":{"name":"Kjølberggata"}},{"type":"Feature","geometry":{"type":"Point","coordinates":[10.8195871,59.9371148]},"properties":{"name":"Kroklia"}},{"type":"Feature","geometry":{"type":"Point","coordinates":[10.7824894,59.9655934]},"properties":{"name":"Kjelsås stasjon"}},{"type":"Feature","geometry":{"type":"Point","coordinates":[10.9582876,59.9170734]},"properties":{"name":""}},{"type":"Feature","geometry":{"type":"Point","coordinates":[10.9198,59.973819]},"properties":{"name":"Bånkallstubben"}},{"type":"Feature","geometry":{"type":"Point","coordinates":[10.89698,59.9622411]},"properties":{"name":"Gangtunnelen"}},{"type":"Feature","geometry":{"type":"Point","coordinates":[10.8901274,59.9630109]},"properties":{"name":"Tiurleiken"}},{"type":"Feature","geometry":{"type":"Point","coordinates":[10.841489,59.9437121]},"properties":{"name":"Veitvetstubben"}},{"type":"Feature","geometry":{"type":"Point","coordinates":[10.7514288,59.9139467]},"properties":{"name":"Storgata"}},{"type":"Feature","geometry":{"type":"Point","coordinates":[10.8270532,59.916911]},"properties":{"name":"Fretex"}},{"type":"Feature","geometry":{"type":"Point","coordinates":[10.830653,59.9223751]},"properties":{"name":"Ole Deviks vei"}},{"type":"Feature","geometry":{"type":"Point","coordinates":[11.0333173,59.9521712]},"properties":{"name":""}},{"type":"Feature","geometry":{"type":"Point","coordinates":[10.6851895,59.9371774]},"properties":{"name":"Smestad"}},{"type":"Feature","geometry":{"type":"Point","coordinates":[10.7340757,59.9327115]},"properties":{"name":"Adamstuen"}},{"type":"Feature","geometry":{"type":"Point","coordinates":[10.7791159,59.9004156]},"properties":{"name":"Utsikten"}},{"type":"Feature","geometry":{"type":"Point","coordinates":[10.7044646,59.9449905]},"properties":{"name":"Risalléen"}},{"type":"Feature","geometry":{"type":"Point","coordinates":[10.7740443,59.9377736]},"properties":{"name":"Haarklous plass"}},{"type":"Feature","geometry":{"type":"Point","coordinates":[10.8475863,59.9188244]},"properties":{"name":"Sigrid Undsets vei"}},{"type":"Feature","geometry":{"type":"Point","coordinates":[10.8375818,59.844466]},"properties":{"name":"Lofsrud"}},{"type":"Feature","geometry":{"type":"Point","coordinates":[10.8374326,59.8444455]},"properties":{"name":"Lofsrud"}},{"type":"Feature","geometry":{"type":"Point","coordinates":[10.7691176,59.8844521]},"properties":{"name":"Bekkelagsveien"}},{"type":"Feature","geometry":{"type":"Point","coordinates":[10.7244173,59.9323843]},"properties":{"name":"Marienlyst"}},{"type":"Feature","geometry":{"type":"Point","coordinates":[10.7238926,59.9322266]},"properties":{"name":"Marienlyst"}},{"type":"Feature","geometry":{"type":"Point","coordinates":[10.716252,59.9150274]},"properties":{"name":"Skovveien"}},{"type":"Feature","geometry":{"type":"Point","coordinates":[10.930474,59.944637]},"properties":{"name":"Vardeheim"}},{"type":"Feature","geometry":{"type":"Point","coordinates":[10.9133912,59.9531081]},"properties":{"name":"Smedstua"}},{"type":"Feature","geometry":{"type":"Point","coordinates":[10.8987967,59.9545817]},"properties":{"name":"Haavard Martinsens vei"}},{"type":"Feature","geometry":{"type":"Point","coordinates":[10.8565068,59.9404857]},"properties":{"name":"Veitvetveien"}},{"type":"Feature","geometry":{"type":"Point","coordinates":[10.8710154,59.9346659]},"properties":{"name":"IKEA Furuset"}},{"type":"Feature","geometry":{"type":"Point","coordinates":[10.8589051,59.9316982]},"properties":{"name":"Kjelsrud"}},{"type":"Feature","geometry":{"type":"Point","coordinates":[10.8057071,59.8796957]},"properties":{"name":"Karlsrud T"}},{"type":"Feature","geometry":{"type":"Point","coordinates":[10.8419526,59.8751911]},"properties":{"name":"Bogerud T"}},{"type":"Feature","geometry":{"type":"Point","coordinates":[10.7361999,59.9613961]},"properties":{"name":"Kongleveien"}},{"type":"Feature","geometry":{"type":"Point","coordinates":[10.811898,59.9271254]},"properties":{"name":"Kabelgata"}},{"type":"Feature","geometry":{"type":"Point","coordinates":[10.8309343,59.9394982]},"properties":{"name":"Linne hotell"}},{"type":"Feature","geometry":{"type":"Point","coordinates":[10.6758338,59.9348395]},"properties":{"name":"Husebyveien"}},{"type":"Feature","geometry":{"type":"Point","coordinates":[10.6655974,59.9305186]},"properties":{"name":"Montebelloveien"}},{"type":"Feature","geometry":{"type":"Point","coordinates":[10.6592511,59.9289125]},"properties":{"name":"Radiumhospitalet"}},{"type":"Feature","geometry":{"type":"Point","coordinates":[10.7703115,59.9419846]},"properties":{"name":"Sandaker"}},{"type":"Feature","geometry":{"type":"Point","coordinates":[10.7789326,59.9457796]},"properties":{"name":"Storo"}},{"type":"Feature","geometry":{"type":"Point","coordinates":[10.7792323,59.9458034]},"properties":{"name":"Storo"}},{"type":"Feature","geometry":{"type":"Point","coordinates":[10.7043759,59.9326021]},"properties":{"name":"Volvat"}},{"type":"Feature","geometry":{"type":"Point","coordinates":[10.5977,59.940318]},"properties":{"name":"Lønnås"}},{"type":"Feature","geometry":{"type":"Point","coordinates":[10.6752812,59.9212851]},"properties":{"name":"Sjølyst"}},{"type":"Feature","geometry":{"type":"Point","coordinates":[10.8852327,59.9437361]},"properties":{"name":"Prof. Birkelands vei"}},{"type":"Feature","geometry":{"type":"Point","coordinates":[10.8889661,59.9490276]},"properties":{"name":"Stjerneblokkveien"}},{"type":"Feature","geometry":{"type":"Point","coordinates":[10.8059547,59.8944056]},"properties":{"name":"Ryensvingen"}},{"type":"Feature","geometry":{"type":"Point","coordinates":[10.8034067,59.846231]},"properties":{"name":"Hauketo stasjon"}},{"type":"Feature","geometry":{"type":"Point","coordinates":[10.8031668,59.8457001]},"properties":{"name":"Hauketo stasjon"}},{"type":"Feature","geometry":{"type":"Point","coordinates":[10.8062642,59.7866672]},"properties":{"name":"Østli"}},{"type":"Feature","geometry":{"type":"Point","coordinates":[10.8076206,59.7868063]},"properties":{"name":"Østli"}},{"type":"Feature","geometry":{"type":"Point","coordinates":[10.803581,59.7754955]},"properties":{"name":"Greverud kirke"}},{"type":"Feature","geometry":{"type":"Point","coordinates":[10.777127,59.810459]},"properties":{"name":"Oppegård næringspark"}},{"type":"Feature","geometry":{"type":"Point","coordinates":[10.7799383,59.8077263]},"properties":{"name":"Gjersjøen"}},{"type":"Feature","geometry":{"type":"Point","coordinates":[10.7810909,59.806038]},"properties":{"name":"Ingierodden"}},{"type":"Feature","geometry":{"type":"Point","coordinates":[10.9425694,59.9407915]},"properties":{"name":"Postterminalen"}},{"type":"Feature","geometry":{"type":"Point","coordinates":[10.453065,59.92531]},"properties":{"name":"Skui"}},{"type":"Feature","geometry":{"type":"Point","coordinates":[10.448006,59.927911]},"properties":{"name":"Skui skole"}},{"type":"Feature","geometry":{"type":"Point","coordinates":[10.438136,59.931382]},"properties":{"name":"Smestad"}},{"type":"Feature","geometry":{"type":"Point","coordinates":[10.406078,59.939997]},"properties":{"name":"Rustan"}},{"type":"Feature","geometry":{"type":"Point","coordinates":[10.405702,59.940748]},"properties":{"name":"Rustan"}},{"type":"Feature","geometry":{"type":"Point","coordinates":[10.392696,59.946668]},"properties":{"name":"Brenna"}},{"type":"Feature","geometry":{"type":"Point","coordinates":[10.393479,59.946602]},"properties":{"name":"Brenna"}},{"type":"Feature","geometry":{"type":"Point","coordinates":[10.346192,59.96393]},"properties":{"name":"Sollihøgda"}},{"type":"Feature","geometry":{"type":"Point","coordinates":[10.370485,59.956709]},"properties":{"name":"Avtjerna"}},{"type":"Feature","geometry":{"type":"Point","coordinates":[10.370453,59.956857]},"properties":{"name":"Avtjerna"}},{"type":"Feature","geometry":{"type":"Point","coordinates":[10.341477,59.966804]},"properties":{"name":"Sollihøgda nedre"}},{"type":"Feature","geometry":{"type":"Point","coordinates":[10.31054,59.98236]},"properties":{"name":"Homledal"}},{"type":"Feature","geometry":{"type":"Point","coordinates":[10.305669,60.058564]},"properties":{"name":"Tyrifjord"}},{"type":"Feature","geometry":{"type":"Point","coordinates":[10.30846,60.061454]},"properties":{"name":"Sundvollen E16"}},{"type":"Feature","geometry":{"type":"Point","coordinates":[10.307224,60.062498]},"properties":{"name":"Sundvollen E16"}},{"type":"Feature","geometry":{"type":"Point","coordinates":[10.287438,60.07764]},"properties":{"name":"Vik E16"}},{"type":"Feature","geometry":{"type":"Point","coordinates":[10.287082,60.07788]},"properties":{"name":"Vik E16"}},{"type":"Feature","geometry":{"type":"Point","coordinates":[10.287443,60.088123]},"properties":{"name":"Steinsåsen E16"}},{"type":"Feature","geometry":{"type":"Point","coordinates":[10.292684,60.095303]},"properties":{"name":"Høyenhall E16"}},{"type":"Feature","geometry":{"type":"Point","coordinates":[10.285464,60.109543]},"properties":{"name":"Vollgata"}},{"type":"Feature","geometry":{"type":"Point","coordinates":[10.282925,60.11565]},"properties":{"name":"Sonerud"}},{"type":"Feature","geometry":{"type":"Point","coordinates":[10.2802,60.1242]},"properties":{"name":"Gihle"}},{"type":"Feature","geometry":{"type":"Point","coordinates":[10.274802,60.129921]},"properties":{"name":"Botilrud"}},{"type":"Feature","geometry":{"type":"Point","coordinates":[10.8077396,59.9426322]},"properties":{"name":"Bjerke"}},{"type":"Feature","geometry":{"type":"Point","coordinates":[11.062476,59.9614386]},"properties":{"name":""}},{"type":"Feature","geometry":{"type":"Point","coordinates":[11.0604661,59.9625058]},"properties":{"name":""}},{"type":"Feature","geometry":{"type":"Point","coordinates":[11.050799,59.9832507]},"properties":{"name":""}},{"type":"Feature","geometry":{"type":"Point","coordinates":[10.8682568,60.0952947]},"properties":{"name":"Bliksrud"}},{"type":"Feature","geometry":{"type":"Point","coordinates":[10.8839554,60.0675799]},"properties":{"name":"Strømsenga"}},{"type":"Feature","geometry":{"type":"Point","coordinates":[10.800732,59.9128165]},"properties":{"name":"Helsfyr T"}},{"type":"Feature","geometry":{"type":"Point","coordinates":[10.7679069,59.9101676]},"properties":{"name":"Politihuset"}},{"type":"Feature","geometry":{"type":"Point","coordinates":[11.0048978,59.9472761]},"properties":{"name":""}},{"type":"Feature","geometry":{"type":"Point","coordinates":[10.8089066,59.8182772]},"properties":{"name":"Skjoldbakken"}},{"type":"Feature","geometry":{"type":"Point","coordinates":[10.916915,59.944331]},"properties":{"name":"Solbakken"}},{"type":"Feature","geometry":{"type":"Point","coordinates":[10.924503,59.944264]},"properties":{"name":"Bikuben"}},{"type":"Feature","geometry":{"type":"Point","coordinates":[10.924627,59.944358]},"properties":{"name":"Bikuben"}},{"type":"Feature","geometry":{"type":"Point","coordinates":[10.926872,59.937621]},"properties":{"name":"Karihaugen"}},{"type":"Feature","geometry":{"type":"Point","coordinates":[10.9361757,59.9360843]},"properties":{"name":"Visperud"}},{"type":"Feature","geometry":{"type":"Point","coordinates":[10.9132895,59.9418552]},"properties":{"name":"Bjørnheim"}},{"type":"Feature","geometry":{"type":"Point","coordinates":[10.91331,59.94191]},"properties":{"name":"Bjørnheim"}},{"type":"Feature","geometry":{"type":"Point","coordinates":[10.912868,59.942206]},"properties":{"name":"Bjørnheim"}},{"type":"Feature","geometry":{"type":"Point","coordinates":[10.910955,59.944211]},"properties":{"name":"Høybråten kirke"}},{"type":"Feature","geometry":{"type":"Point","coordinates":[10.90977,59.944563]},"properties":{"name":"Høybråten kirke"}},{"type":"Feature","geometry":{"type":"Point","coordinates":[10.949158,59.93946]},"properties":{"name":"Lindeveien"}},{"type":"Feature","geometry":{"type":"Point","coordinates":[10.949206,59.935813]},"properties":{"name":"Håkons vei"}},{"type":"Feature","geometry":{"type":"Point","coordinates":[10.949204,59.935951]},"properties":{"name":"Håkons vei"}},{"type":"Feature","geometry":{"type":"Point","coordinates":[10.938402,59.949966]},"properties":{"name":"Fjellstuveien"}},{"type":"Feature","geometry":{"type":"Point","coordinates":[11.0587224,59.9352035]},"properties":{"name":""}},{"type":"Feature","geometry":{"type":"Point","coordinates":[11.0724358,59.9249323]},"properties":{"name":""}},{"type":"Feature","geometry":{"type":"Point","coordinates":[11.0269109,59.9481817]},"properties":{"name":"Strømsdalen"}},{"type":"Feature","geometry":{"type":"Point","coordinates":[11.0208227,59.9381448]},"properties":{"name":""}},{"type":"Feature","geometry":{"type":"Point","coordinates":[10.993776,59.9333892]},"properties":{"name":"Ahus"}},{"type":"Feature","geometry":{"type":"Point","coordinates":[10.934749,59.935317]},"properties":{"name":"Visperud"}},{"type":"Feature","geometry":{"type":"Point","coordinates":[10.6805355,59.950733]},"properties":{"name":"Holmenhavna"}},{"type":"Feature","geometry":{"type":"Point","coordinates":[10.9341374,59.9574949]},"properties":{"name":"Jonny Svorkmos vei"}},{"type":"Feature","geometry":{"type":"Point","coordinates":[10.931072,59.9592492]},"properties":{"name":"Olaus Fjørtofts vei"}},{"type":"Feature","geometry":{"type":"Point","coordinates":[10.93944,59.946792]},"properties":{"name":"Stovner bru"}},{"type":"Feature","geometry":{"type":"Point","coordinates":[10.939274,59.946983]},"properties":{"name":"Stovner bru"}},{"type":"Feature","geometry":{"type":"Point","coordinates":[10.935044,59.956948]},"properties":{"name":"Johnny Svorkmos vei"}},{"type":"Feature","geometry":{"type":"Point","coordinates":[10.934095,59.957551]},"properties":{"name":"Johnny Svorkmos vei"}},{"type":"Feature","geometry":{"type":"Point","coordinates":[10.930042,59.95936]},"properties":{"name":"Olaus Fjørtofts vei"}},{"type":"Feature","geometry":{"type":"Point","coordinates":[10.931085,59.959286]},"properties":{"name":"Olaus Fjørtofts vei"}},{"type":"Feature","geometry":{"type":"Point","coordinates":[10.7985389,59.9554086]},"properties":{"name":"Grefsenseteren"}},{"type":"Feature","geometry":{"type":"Point","coordinates":[10.8728292,59.9257121]},"properties":{"name":"Lutvannsveien"}},{"type":"Feature","geometry":{"type":"Point","coordinates":[10.8728846,59.9253872]},"properties":{"name":"Lutvannsveien"}},{"type":"Feature","geometry":{"type":"Point","coordinates":[10.7758681,59.966365]},"properties":{"name":"Stillatorvet"}},{"type":"Feature","geometry":{"type":"Point","coordinates":[10.376045,59.727009]},"properties":{"name":"Gamle Hyggenvei"}},{"type":"Feature","geometry":{"type":"Point","coordinates":[10.7726733,60.0148016]},"properties":{"name":"Rugda"}},{"type":"Feature","geometry":{"type":"Point","coordinates":[10.7778892,60.0202385]},"properties":{"name":"Skarsbakken"}},{"type":"Feature","geometry":{"type":"Point","coordinates":[10.786509,60.019365]},"properties":{"name":"Sandermosveien"}},{"type":"Feature","geometry":{"type":"Point","coordinates":[10.7643,59.973054]},"properties":{"name":"Engelsrud"}},{"type":"Feature","geometry":{"type":"Point","coordinates":[10.752305,59.994042]},"properties":{"name":"Hammeren"}},{"type":"Feature","geometry":{"type":"Point","coordinates":[10.382641,59.743649]},"properties":{"name":"Prestegårdsjordet"}},{"type":"Feature","geometry":{"type":"Point","coordinates":[10.8857996,59.9593137]},"properties":{"name":"Grorudkrysset"}},{"type":"Feature","geometry":{"type":"Point","coordinates":[10.9076736,59.9664995]},"properties":{"name":"Rommi"}},{"type":"Feature","geometry":{"type":"Point","coordinates":[10.7937906,59.8669883]},"properties":{"name":"Bråten"}},{"type":"Feature","geometry":{"type":"Point","coordinates":[10.7747574,59.8344048]},"properties":{"name":"Hvervenbukta"}},{"type":"Feature","geometry":{"type":"Point","coordinates":[10.8747191,60.0521426]},"properties":{"name":""}},{"type":"Feature","geometry":{"type":"Point","coordinates":[10.5073944,59.9113424]},"properties":{"name":""}},{"type":"Feature","geometry":{"type":"Point","coordinates":[10.6166983,59.9090741]},"properties":{"name":"Nordliveien"}},{"type":"Feature","geometry":{"type":"Point","coordinates":[10.6289364,59.9100043]},"properties":{"name":"Fornebuveien"}},{"type":"Feature","geometry":{"type":"Point","coordinates":[10.6205275,59.8854677]},"properties":{"name":"Halden"}},{"type":"Feature","geometry":{"type":"Point","coordinates":[10.6566963,59.9750241]},"properties":{"name":""}},{"type":"Feature","geometry":{"type":"Point","coordinates":[11.0242607,59.9358777]},"properties":{"name":""}},{"type":"Feature","geometry":{"type":"Point","coordinates":[10.645714,59.963514]},"properties":{"name":"Himstadplassen"}},{"type":"Feature","geometry":{"type":"Point","coordinates":[10.6540751,59.9566911]},"properties":{"name":"Nordre Jarbakken"}},{"type":"Feature","geometry":{"type":"Point","coordinates":[10.7741466,59.6648992]},"properties":{"name":"Universitetet i Ås"}},{"type":"Feature","geometry":{"type":"Point","coordinates":[10.8311194,59.7123567]},"properties":{"name":"Finstad"}},{"type":"Feature","geometry":{"type":"Point","coordinates":[10.8315947,59.8415614]},"properties":{"name":"Blakkens vei"}},{"type":"Feature","geometry":{"type":"Point","coordinates":[10.831314,59.8422115]},"properties":{"name":"Blakkens vei"}},{"type":"Feature","geometry":{"type":"Point","coordinates":[10.8295178,59.8445548]},"properties":{"name":"Brunas vei"}},{"type":"Feature","geometry":{"type":"Point","coordinates":[10.8286669,59.8465204]},"properties":{"name":"Lofsrudhøgda"}},{"type":"Feature","geometry":{"type":"Point","coordinates":[10.8190666,59.8440081]},"properties":{"name":""}},{"type":"Feature","geometry":{"type":"Point","coordinates":[10.9337314,59.7993291]},"properties":{"name":""}},{"type":"Feature","geometry":{"type":"Point","coordinates":[11.0164749,59.7376966]},"properties":{"name":""}},{"type":"Feature","geometry":{"type":"Point","coordinates":[11.027016,59.734258]},"properties":{"name":"Vågvann"}},{"type":"Feature","geometry":{"type":"Point","coordinates":[11.03298,59.730583]},"properties":{"name":"Skovheim"}},{"type":"Feature","geometry":{"type":"Point","coordinates":[11.0515615,59.7231936]},"properties":{"name":""}},{"type":"Feature","geometry":{"type":"Point","coordinates":[11.055948,59.722351]},"properties":{"name":"Tangen bru"}},{"type":"Feature","geometry":{"type":"Point","coordinates":[11.084739,59.7257879]},"properties":{"name":""}},{"type":"Feature","geometry":{"type":"Point","coordinates":[11.1445738,59.7586106]},"properties":{"name":""}},{"type":"Feature","geometry":{"type":"Point","coordinates":[11.146545,59.763792]},"properties":{"name":"Enebakk kirke"}},{"type":"Feature","geometry":{"type":"Point","coordinates":[11.1732534,59.7802332]},"properties":{"name":""}},{"type":"Feature","geometry":{"type":"Point","coordinates":[11.1759634,59.7851746]},"properties":{"name":""}},{"type":"Feature","geometry":{"type":"Point","coordinates":[11.1829237,59.7921962]},"properties":{"name":""}},{"type":"Feature","geometry":{"type":"Point","coordinates":[11.1843867,59.7928313]},"properties":{"name":""}},{"type":"Feature","geometry":{"type":"Point","coordinates":[11.187834,59.795176]},"properties":{"name":"Linås"}},{"type":"Feature","geometry":{"type":"Point","coordinates":[11.1840984,59.8024891]},"properties":{"name":""}},{"type":"Feature","geometry":{"type":"Point","coordinates":[11.1803053,59.8102581]},"properties":{"name":""}},{"type":"Feature","geometry":{"type":"Point","coordinates":[11.142599,59.837393]},"properties":{"name":"Flateby boligfelt"}},{"type":"Feature","geometry":{"type":"Point","coordinates":[11.128843,59.8442554]},"properties":{"name":""}},{"type":"Feature","geometry":{"type":"Point","coordinates":[11.1078782,59.8514741]},"properties":{"name":""}},{"type":"Feature","geometry":{"type":"Point","coordinates":[11.0990224,59.8542815]},"properties":{"name":""}},{"type":"Feature","geometry":{"type":"Point","coordinates":[11.0940093,59.8627692]},"properties":{"name":""}},{"type":"Feature","geometry":{"type":"Point","coordinates":[11.0883671,59.8792787]},"properties":{"name":""}},{"type":"Feature","geometry":{"type":"Point","coordinates":[11.0719394,59.92213]},"properties":{"name":""}},{"type":"Feature","geometry":{"type":"Point","coordinates":[10.8975108,59.7338576]},"properties":{"name":""}},{"type":"Feature","geometry":{"type":"Point","coordinates":[10.9472317,59.7394966]},"properties":{"name":""}},{"type":"Feature","geometry":{"type":"Point","coordinates":[10.9453109,59.7398841]},"properties":{"name":""}},{"type":"Feature","geometry":{"type":"Point","coordinates":[10.9373407,59.7455634]},"properties":{"name":""}},{"type":"Feature","geometry":{"type":"Point","coordinates":[10.9255154,59.7624876]},"properties":{"name":""}},{"type":"Feature","geometry":{"type":"Point","coordinates":[10.9141607,59.773725]},"properties":{"name":""}},{"type":"Feature","geometry":{"type":"Point","coordinates":[10.8968536,59.78562]},"properties":{"name":""}},{"type":"Feature","geometry":{"type":"Point","coordinates":[10.8378917,59.7500544]},"properties":{"name":"Langhus stasjon"}},{"type":"Feature","geometry":{"type":"Point","coordinates":[10.829189,59.7232817]},"properties":{"name":""}},{"type":"Feature","geometry":{"type":"Point","coordinates":[10.8356014,59.8362107]},"properties":{"name":"Bjørnholt nedre"}},{"type":"Feature","geometry":{"type":"Point","coordinates":[10.837551,59.8310926]},"properties":{"name":"Nyjordet"}},{"type":"Feature","geometry":{"type":"Point","coordinates":[10.8355519,59.8257189]},"properties":{"name":"Bjørndal senter"}},{"type":"Feature","geometry":{"type":"Point","coordinates":[10.8354423,59.8242333]},"properties":{"name":"Meklenborg"}},{"type":"Feature","geometry":{"type":"Point","coordinates":[10.8339017,59.8366535]},"properties":{"name":"Bjørnholt øvre"}},{"type":"Feature","geometry":{"type":"Point","coordinates":[11.0414824,59.9541449]},"properties":{"name":"Lillestrøm bussterminal"}},{"type":"Feature","geometry":{"type":"Point","coordinates":[11.153556,60.080767]},"properties":{"name":"Skibakk"}},{"type":"Feature","geometry":{"type":"Point","coordinates":[11.066011,59.680219]},"properties":{"name":"Amundrød"}},{"type":"Feature","geometry":{"type":"Point","coordinates":[11.0201791,59.9848552]},"properties":{"name":""}},{"type":"Feature","geometry":{"type":"Point","coordinates":[11.0281807,59.9880362]},"properties":{"name":""}},{"type":"Feature","geometry":{"type":"Point","coordinates":[11.0291369,59.9941396]},"properties":{"name":""}},{"type":"Feature","geometry":{"type":"Point","coordinates":[10.8277716,59.8522652]},"properties":{"name":"Olarudsveien"}},{"type":"Feature","geometry":{"type":"Point","coordinates":[10.8254531,59.8497878]},"properties":{"name":"Stenbråten"}},{"type":"Feature","geometry":{"type":"Point","coordinates":[10.8125226,59.8501047]},"properties":{"name":"Kantarellen"}},{"type":"Feature","geometry":{"type":"Point","coordinates":[10.8248759,59.8572088]},"properties":{"name":"Granebakken"}},{"type":"Feature","geometry":{"type":"Point","coordinates":[10.8360411,59.8495115]},"properties":{"name":"Mortensrudkrysset"}},{"type":"Feature","geometry":{"type":"Point","coordinates":[10.305128,60.058528]},"properties":{"name":"Tyrifjord"}},{"type":"Feature","geometry":{"type":"Point","coordinates":[10.8961837,60.0261339]},"properties":{"name":"Kjul"}},{"type":"Feature","geometry":{"type":"Point","coordinates":[10.9120736,60.0164861]},"properties":{"name":"Hauger"}},{"type":"Feature","geometry":{"type":"Point","coordinates":[10.8436592,59.8444864]},"properties":{"name":"Bratli"}},{"type":"Feature","geometry":{"type":"Point","coordinates":[10.8374581,59.850146]},"properties":{"name":"Dalssvingen"}},{"type":"Feature","geometry":{"type":"Point","coordinates":[10.825127,59.857108]},"properties":{"name":"Granebakken"}},{"type":"Feature","geometry":{"type":"Point","coordinates":[10.824983,59.857215]},"properties":{"name":"Granebakken"}},{"type":"Feature","geometry":{"type":"Point","coordinates":[10.824443,59.858434]},"properties":{"name":"Maikollen"}},{"type":"Feature","geometry":{"type":"Point","coordinates":[10.827708,59.852741]},"properties":{"name":"Olasrudveien"}},{"type":"Feature","geometry":{"type":"Point","coordinates":[10.829145,59.849654]},"properties":{"name":"D"}},{"type":"Feature","geometry":{"type":"Point","coordinates":[10.82771,59.852209]},"properties":{"name":"Olasrudveien"}},{"type":"Feature","geometry":{"type":"Point","coordinates":[11.478412,60.125078]},"properties":{"name":"Nes vgs."}},{"type":"Feature","geometry":{"type":"Point","coordinates":[10.8123273,59.8734225]},"properties":{"name":"Lambertseter senter"}},{"type":"Feature","geometry":{"type":"Point","coordinates":[10.8216818,59.8746473]},"properties":{"name":"Marmorveien"}},{"type":"Feature","geometry":{"type":"Point","coordinates":[10.8205029,59.8703376]},"properties":{"name":"Glimmerveien"}},{"type":"Feature","geometry":{"type":"Point","coordinates":[10.8208379,59.8730703]},"properties":{"name":"Feltspatveien"}},{"type":"Feature","geometry":{"type":"Point","coordinates":[10.8070857,59.8713237]},"properties":{"name":"Lambertseterveien"}},{"type":"Feature","geometry":{"type":"Point","coordinates":[10.8161083,59.7177561]},"properties":{"name":""}},{"type":"Feature","geometry":{"type":"Point","coordinates":[10.8173462,59.7193653]},"properties":{"name":"Myrstubben"}},{"type":"Feature","geometry":{"type":"Point","coordinates":[10.8257077,59.7114654]},"properties":{"name":"Finstad hageby"}},{"type":"Feature","geometry":{"type":"Point","coordinates":[10.8444308,59.7254308]},"properties":{"name":""}},{"type":"Feature","geometry":{"type":"Point","coordinates":[10.786615,59.723471]},"properties":{"name":"Gamle Kongevei"}},{"type":"Feature","geometry":{"type":"Point","coordinates":[10.8107735,59.7933561]},"properties":{"name":"Sofiemyråsen"}},{"type":"Feature","geometry":{"type":"Point","coordinates":[10.8177752,59.7925555]},"properties":{"name":"Granholtet"}},{"type":"Feature","geometry":{"type":"Point","coordinates":[11.0362757,59.9892646]},"properties":{"name":""}},{"type":"Feature","geometry":{"type":"Point","coordinates":[11.036815,59.9933379]},"properties":{"name":"Vestvollen"}},{"type":"Feature","geometry":{"type":"Point","coordinates":[11.0361378,59.9875219]},"properties":{"name":""}},{"type":"Feature","geometry":{"type":"Point","coordinates":[11.0316454,59.9949765]},"properties":{"name":""}},{"type":"Feature","geometry":{"type":"Point","coordinates":[11.0217195,59.9970601]},"properties":{"name":""}},{"type":"Feature","geometry":{"type":"Point","coordinates":[11.125253,60.037907]},"properties":{"name":"Lindeberg handel"}},{"type":"Feature","geometry":{"type":"Point","coordinates":[10.8173608,59.814244]},"properties":{"name":"Tårnlia"}},{"type":"Feature","geometry":{"type":"Point","coordinates":[10.779284,60.026663]},"properties":{"name":"Skar"}},{"type":"Feature","geometry":{"type":"Point","coordinates":[10.7258797,60.1570256]},"properties":{"name":""}},{"type":"Feature","geometry":{"type":"Point","coordinates":[10.7381842,59.7017048]},"properties":{"name":"Vassum"}},{"type":"Feature","geometry":{"type":"Point","coordinates":[10.7292764,59.6860875]},"properties":{"name":"Horgenmyra"}},{"type":"Feature","geometry":{"type":"Point","coordinates":[10.7867736,59.8380357]},"properties":{"name":"Ravnåsen"}},{"type":"Feature","geometry":{"type":"Point","coordinates":[10.980574,59.932596]},"properties":{"name":"Kloppaveien"}},{"type":"Feature","geometry":{"type":"Point","coordinates":[10.989804,59.935919]},"properties":{"name":"Nordbyhagen"}},{"type":"Feature","geometry":{"type":"Point","coordinates":[10.6765946,59.9205139]},"properties":{"name":"Sjølyst"}},{"type":"Feature","geometry":{"type":"Point","coordinates":[10.78193,59.965744]},"properties":{"name":"Kjelsås stasjon"}},{"type":"Feature","geometry":{"type":"Point","coordinates":[10.802803,59.947391]},"properties":{"name":"Lofthus"}},{"type":"Feature","geometry":{"type":"Point","coordinates":[10.803278,59.947136]},"properties":{"name":"Lofthus"}},{"type":"Feature","geometry":{"type":"Point","coordinates":[10.9306287,60.0069422]},"properties":{"name":""}},{"type":"Feature","geometry":{"type":"Point","coordinates":[10.7631954,59.9317019]},"properties":{"name":"Vogts gate"}},{"type":"Feature","geometry":{"type":"Point","coordinates":[10.7593064,59.920816]},"properties":{"name":"Schous plass"}},{"type":"Feature","geometry":{"type":"Point","coordinates":[10.8448796,59.7612131]},"properties":{"name":"Kløversvingen"}},{"type":"Feature","geometry":{"type":"Point","coordinates":[10.8566122,59.7638852]},"properties":{"name":"Bøleråsen skole"}},{"type":"Feature","geometry":{"type":"Point","coordinates":[10.8619794,59.76194]},"properties":{"name":"Blåbærveien"}},{"type":"Feature","geometry":{"type":"Point","coordinates":[10.9759716,59.9411288]},"properties":{"name":""}},{"type":"Feature","geometry":{"type":"Point","coordinates":[10.656703,59.851004]},"properties":{"name":"Flaskebekkrysset"}},{"type":"Feature","geometry":{"type":"Point","coordinates":[10.654582,59.848419]},"properties":{"name":"Flaskebekktjernet"}},{"type":"Feature","geometry":{"type":"Point","coordinates":[10.594738,59.737366]},"properties":{"name":"Skogheim"}},{"type":"Feature","geometry":{"type":"Point","coordinates":[11.144662,59.930709]},"properties":{"name":"Hovinhøgda"}},{"type":"Feature","geometry":{"type":"Point","coordinates":[11.132998,59.939839]},"properties":{"name":"Furulund"}},{"type":"Feature","geometry":{"type":"Point","coordinates":[11.013371,59.979814]},"properties":{"name":"Kjellerholen"}},{"type":"Feature","geometry":{"type":"Point","coordinates":[10.670053,59.855619]},"properties":{"name":"Oksval"}},{"type":"Feature","geometry":{"type":"Point","coordinates":[10.9044,59.971854]},"properties":{"name":"Øvre Svarttjern"}},{"type":"Feature","geometry":{"type":"Point","coordinates":[10.905561,59.969336]},"properties":{"name":"Svarttjern"}},{"type":"Feature","geometry":{"type":"Point","coordinates":[10.895254,59.96465]},"properties":{"name":"Romsås senter"}},{"type":"Feature","geometry":{"type":"Point","coordinates":[10.898354,59.965169]},"properties":{"name":"Orremyr"}},{"type":"Feature","geometry":{"type":"Point","coordinates":[10.907471,59.966504]},"properties":{"name":"Rommi"}},{"type":"Feature","geometry":{"type":"Point","coordinates":[10.899371,59.971787]},"properties":{"name":"Røverkollen"}},{"type":"Feature","geometry":{"type":"Point","coordinates":[10.538091,59.67599]},"properties":{"name":"Sætre skole"}},{"type":"Feature","geometry":{"type":"Point","coordinates":[10.536645,59.676743]},"properties":{"name":"Sætre skole"}},{"type":"Feature","geometry":{"type":"Point","coordinates":[10.5744,59.5565]},"properties":{"name":"Brinkli"}},{"type":"Feature","geometry":{"type":"Point","coordinates":[10.8039179,59.8280741]},"properties":{"name":"Toppåsveien"}},{"type":"Feature","geometry":{"type":"Point","coordinates":[10.8009586,59.8366661]},"properties":{"name":"Lerdalstoppen"}},{"type":"Feature","geometry":{"type":"Point","coordinates":[10.7993252,59.8400226]},"properties":{"name":"Asperudåsen"}},{"type":"Feature","geometry":{"type":"Point","coordinates":[10.595927,59.935202]},"properties":{"name":"Bispeveien"}},{"type":"Feature","geometry":{"type":"Point","coordinates":[10.5934167,59.954038]},"properties":{"name":""}},{"type":"Feature","geometry":{"type":"Point","coordinates":[11.0424263,59.973165]},"properties":{"name":""}},{"type":"Feature","geometry":{"type":"Point","coordinates":[10.9075523,59.9911459]},"properties":{"name":""}},{"type":"Feature","geometry":{"type":"Point","coordinates":[10.9069837,59.9912663]},"properties":{"name":""}},{"type":"Feature","geometry":{"type":"Point","coordinates":[10.603657,59.640487]},"properties":{"name":"Storsand brygge"}},{"type":"Feature","geometry":{"type":"Point","coordinates":[10.611908,59.606155]},"properties":{"name":"Eltorn"}},{"type":"Feature","geometry":{"type":"Point","coordinates":[10.614515,59.597375]},"properties":{"name":"Solbergstøa"}},{"type":"Feature","geometry":{"type":"Point","coordinates":[10.614115,59.592973]},"properties":{"name":"Granlien"}},{"type":"Feature","geometry":{"type":"Point","coordinates":[10.612152,59.588706]},"properties":{"name":"Hermannsbråten"}},{"type":"Feature","geometry":{"type":"Point","coordinates":[10.6099,59.5866]},"properties":{"name":"Solberg"}},{"type":"Feature","geometry":{"type":"Point","coordinates":[10.609016,59.582104]},"properties":{"name":"Husebybakken"}},{"type":"Feature","geometry":{"type":"Point","coordinates":[10.592121,59.92236]},"properties":{"name":"Hans Burums vei"}},{"type":"Feature","geometry":{"type":"Point","coordinates":[10.588178,59.655798]},"properties":{"name":"Storsandtoppen"}},{"type":"Feature","geometry":{"type":"Point","coordinates":[10.587701,59.655827]},"properties":{"name":"Storsandtoppen"}},{"type":"Feature","geometry":{"type":"Point","coordinates":[10.573794,59.6585]},"properties":{"name":"Fredbo"}},{"type":"Feature","geometry":{"type":"Point","coordinates":[10.573871,59.65841]},"properties":{"name":"Fredbo"}},{"type":"Feature","geometry":{"type":"Point","coordinates":[10.591424,59.652498]},"properties":{"name":"Vannsbrekka"}},{"type":"Feature","geometry":{"type":"Point","coordinates":[10.591102,59.652558]},"properties":{"name":"Vannsbrekka"}},{"type":"Feature","geometry":{"type":"Point","coordinates":[10.9671847,59.7372252]},"properties":{"name":""}},{"type":"Feature","geometry":{"type":"Point","coordinates":[10.7502833,59.9405181]},"properties":{"name":"Voldsløkka"}},{"type":"Feature","geometry":{"type":"Point","coordinates":[10.724395,60.1834213]},"properties":{"name":""}},{"type":"Feature","geometry":{"type":"Point","coordinates":[10.8114855,60.1314259]},"properties":{"name":"Elnesveien"}},{"type":"Feature","geometry":{"type":"Point","coordinates":[10.8209221,60.125244]},"properties":{"name":"Haug"}},{"type":"Feature","geometry":{"type":"Point","coordinates":[11.131245,59.734302]},"properties":{"name":"Tømmerbråten"}},{"type":"Feature","geometry":{"type":"Point","coordinates":[10.717431,59.929505]},"properties":{"name":"Majorstuen (D)"}},{"type":"Feature","geometry":{"type":"Point","coordinates":[10.7172141,59.9294693]},"properties":{"name":"Majorstuen"}},{"type":"Feature","geometry":{"type":"Point","coordinates":[10.519605,59.666443]},"properties":{"name":"Damstua"}},{"type":"Feature","geometry":{"type":"Point","coordinates":[10.948359,59.790444]},"properties":{"name":"Nordliveien"}},{"type":"Feature","geometry":{"type":"Point","coordinates":[10.947165,59.791515]},"properties":{"name":"Nordliveien"}},{"type":"Feature","geometry":{"type":"Point","coordinates":[10.9004323,59.9668244]},"properties":{"name":"Emanuelfjell"}},{"type":"Feature","geometry":{"type":"Point","coordinates":[10.900342,59.966845]},"properties":{"name":"Emanuelfjell"}},{"type":"Feature","geometry":{"type":"Point","coordinates":[10.7314869,59.9237442]},"properties":{"name":"Dalsbergstien"}},{"type":"Feature","geometry":{"type":"Point","coordinates":[10.7129888,59.908498]},"properties":{"name":"Filipstadveien"}},{"type":"Feature","geometry":{"type":"Point","coordinates":[10.374677,59.744131]},"properties":{"name":"Grinidalen"}},{"type":"Feature","geometry":{"type":"Point","coordinates":[11.0066,59.967693]},"properties":{"name":"Nordens vei"}},{"type":"Feature","geometry":{"type":"Point","coordinates":[11.079238,59.61601]},"properties":{"name":"Spydeberg torv"}},{"type":"Feature","geometry":{"type":"Point","coordinates":[11.0511672,59.9712726]},"properties":{"name":""}},{"type":"Feature","geometry":{"type":"Point","coordinates":[11.0454202,59.9739297]},"properties":{"name":""}},{"type":"Feature","geometry":{"type":"Point","coordinates":[10.58415,59.935904]},"properties":{"name":"Hosle senter"}},{"type":"Feature","geometry":{"type":"Point","coordinates":[10.4663522,59.8570405]},"properties":{"name":"Hvalstad"}},{"type":"Feature","geometry":{"type":"Point","coordinates":[10.4672265,59.8571019]},"properties":{"name":"Hvalstad"}},{"type":"Feature","geometry":{"type":"Point","coordinates":[10.477532,59.857905]},"properties":{"name":"Ravnsborg"}},{"type":"Feature","geometry":{"type":"Point","coordinates":[10.476679,59.857924]},"properties":{"name":"Ravnsborg"}},{"type":"Feature","geometry":{"type":"Point","coordinates":[10.455742,59.853647]},"properties":{"name":"Asker museum"}},{"type":"Feature","geometry":{"type":"Point","coordinates":[10.455524,59.853681]},"properties":{"name":"Asker museum"}},{"type":"Feature","geometry":{"type":"Point","coordinates":[10.447105,59.849315]},"properties":{"name":"Solgården"}},{"type":"Feature","geometry":{"type":"Point","coordinates":[10.448368,59.849637]},"properties":{"name":"Solgården"}},{"type":"Feature","geometry":{"type":"Point","coordinates":[10.7131247,59.9298511]},"properties":{"name":"Majorstuen"}},{"type":"Feature","geometry":{"type":"Point","coordinates":[11.053922,59.966661]},"properties":{"name":"Måsasvingen øst"}},{"type":"Feature","geometry":{"type":"Point","coordinates":[11.05172,59.968029]},"properties":{"name":"Måsasvingen vest"}},{"type":"Feature","geometry":{"type":"Point","coordinates":[11.035101,59.956943]},"properties":{"name":"Jonas Lies gate"}},{"type":"Feature","geometry":{"type":"Point","coordinates":[11.035115,59.957102]},"properties":{"name":"Jonas Lies gate"}},{"type":"Feature","geometry":{"type":"Point","coordinates":[11.051734,59.970155]},"properties":{"name":"Brauterkrysset"}},{"type":"Feature","geometry":{"type":"Point","coordinates":[11.050787,59.969962]},"properties":{"name":"Brauterkrysset"}},{"type":"Feature","geometry":{"type":"Point","coordinates":[11.05113,59.971339]},"properties":{"name":"Nordsnoveien"}},{"type":"Feature","geometry":{"type":"Point","coordinates":[11.05113,59.971248]},"properties":{"name":"Nordsnoveien"}},{"type":"Feature","geometry":{"type":"Point","coordinates":[10.7122603,59.9178933]},"properties":{"name":"Lille Frogner allé"}},{"type":"Feature","geometry":{"type":"Point","coordinates":[11.05157,59.968492]},"properties":{"name":"Måsasvingen vest"}},{"type":"Feature","geometry":{"type":"Point","coordinates":[10.9048373,59.992658]},"properties":{"name":""}},{"type":"Feature","geometry":{"type":"Point","coordinates":[10.655582,59.673723]},"properties":{"name":"Dyrløkke"}},{"type":"Feature","geometry":{"type":"Point","coordinates":[11.139818,60.099715]},"properties":{"name":"Smia"}},{"type":"Feature","geometry":{"type":"Point","coordinates":[11.139611,60.099622]},"properties":{"name":"Smia"}},{"type":"Feature","geometry":{"type":"Point","coordinates":[10.427957,59.814231]},"properties":{"name":"Barlindbekken"}},{"type":"Feature","geometry":{"type":"Point","coordinates":[10.470928,59.882496]},"properties":{"name":"Staver"}},{"type":"Feature","geometry":{"type":"Point","coordinates":[10.7850221,59.9048046]},"properties":{"name":"Kværnerbyen"}},{"type":"Feature","geometry":{"type":"Point","coordinates":[10.7272074,59.9122532]},"properties":{"name":"Dokkveien"}},{"type":"Feature","geometry":{"type":"Point","coordinates":[10.6381526,59.9127924]},"properties":{"name":"Lysaker stasjon"}},{"type":"Feature","geometry":{"type":"Point","coordinates":[10.7695605,59.9291876]},"properties":{"name":"Københavngata"}},{"type":"Feature","geometry":{"type":"Point","coordinates":[11.138731,60.109345]},"properties":{"name":"Aspervegen"}},{"type":"Feature","geometry":{"type":"Point","coordinates":[11.138586,60.10941]},"properties":{"name":"Aspervegen"}},{"type":"Feature","geometry":{"type":"Point","coordinates":[10.464038,59.917473]},"properties":{"name":"Arnesenga"}},{"type":"Feature","geometry":{"type":"Point","coordinates":[10.460409,59.919816]},"properties":{"name":"Bærums meieri"}},{"type":"Feature","geometry":{"type":"Point","coordinates":[10.47566,59.908168]},"properties":{"name":"Vøyenenga"}},{"type":"Feature","geometry":{"type":"Point","coordinates":[10.6461835,59.6627941]},"properties":{"name":"Holterteigen"}},{"type":"Feature","geometry":{"type":"Point","coordinates":[10.6501797,59.6600573]},"properties":{"name":"Skorkeberg"}},{"type":"Feature","geometry":{"type":"Point","coordinates":[10.463008,59.918301]},"properties":{"name":"Arnesenga"}},{"type":"Feature","geometry":{"type":"Point","coordinates":[11.364608,60.03781]},"properties":{"name":"Aulifeltet"}},{"type":"Feature","geometry":{"type":"Point","coordinates":[10.9831305,59.960964]},"properties":{"name":"Gullhaug-Tømte"}},{"type":"Feature","geometry":{"type":"Point","coordinates":[10.98323,59.960962]},"properties":{"name":"Guldhaug-Tømte"}},{"type":"Feature","geometry":{"type":"Point","coordinates":[11.192989,59.607697]},"properties":{"name":"Boslett"}},{"type":"Feature","geometry":{"type":"Point","coordinates":[10.6156075,59.9455264]},"properties":{"name":"Niels Leuchs vei"}},{"type":"Feature","geometry":{"type":"Point","coordinates":[10.576535,59.920882]},"properties":{"name":"Øygardveien"}},{"type":"Feature","geometry":{"type":"Point","coordinates":[10.57587,59.921296]},"properties":{"name":"Øygardveien"}},{"type":"Feature","geometry":{"type":"Point","coordinates":[10.447097,59.730417]},"properties":{"name":"Krokodden"}},{"type":"Feature","geometry":{"type":"Point","coordinates":[10.9492586,59.9182229]},"properties":{"name":""}},{"type":"Feature","geometry":{"type":"Point","coordinates":[10.928304,59.953007]},"properties":{"name":"Jorines vei"}},{"type":"Feature","geometry":{"type":"Point","coordinates":[10.928741,59.953041]},"properties":{"name":"Jorines vei"}},{"type":"Feature","geometry":{"type":"Point","coordinates":[10.92368,59.953011]},"properties":{"name":"Smiuvegen"}},{"type":"Feature","geometry":{"type":"Point","coordinates":[10.923876,59.952847]},"properties":{"name":"Smiuvegen"}},{"type":"Feature","geometry":{"type":"Point","coordinates":[10.8669988,59.766844]},"properties":{"name":"Bøleråsen"}},{"type":"Feature","geometry":{"type":"Point","coordinates":[10.374119,59.721251]},"properties":{"name":"Hyggenhagan"}},{"type":"Feature","geometry":{"type":"Point","coordinates":[10.866884,59.767031]},"properties":{"name":"Bøleråsen"}},{"type":"Feature","geometry":{"type":"Point","coordinates":[10.8469504,59.7580978]},"properties":{"name":""}},{"type":"Feature","geometry":{"type":"Point","coordinates":[10.845762,59.759559]},"properties":{"name":"Vevelstadlia"}},{"type":"Feature","geometry":{"type":"Point","coordinates":[10.845496,59.759536]},"properties":{"name":"Vevelstadlia"}},{"type":"Feature","geometry":{"type":"Point","coordinates":[10.367677,59.717088]},"properties":{"name":"Hyggen"}},{"type":"Feature","geometry":{"type":"Point","coordinates":[10.60822,59.943119]},"properties":{"name":"Østerås senter"}},{"type":"Feature","geometry":{"type":"Point","coordinates":[10.607919,59.942907]},"properties":{"name":"Østerås senter"}},{"type":"Feature","geometry":{"type":"Point","coordinates":[10.3179,59.7181]},"properties":{"name":"Lauton"}},{"type":"Feature","geometry":{"type":"Point","coordinates":[10.349666,59.715732]},"properties":{"name":"Vestre Hyggen"}},{"type":"Feature","geometry":{"type":"Point","coordinates":[10.348295,59.715816]},"properties":{"name":"Vestre Hyggen"}},{"type":"Feature","geometry":{"type":"Point","coordinates":[10.337773,59.714336]},"properties":{"name":"Kinnartangen"}},{"type":"Feature","geometry":{"type":"Point","coordinates":[10.564698,59.923494]},"properties":{"name":"Haslum kirke"}},{"type":"Feature","geometry":{"type":"Point","coordinates":[10.565047,59.923531]},"properties":{"name":"Haslum kirke"}},{"type":"Feature","geometry":{"type":"Point","coordinates":[10.592389,59.922818]},"properties":{"name":"Hans Burums vei"}},{"type":"Feature","geometry":{"type":"Point","coordinates":[10.61161,60.01699]},"properties":{"name":"Sørkedalen skole"}},{"type":"Feature","geometry":{"type":"Point","coordinates":[10.751251,59.912323]},"properties":{"name":"Jernbanetorget (G)"}},{"type":"Feature","geometry":{"type":"Point","coordinates":[10.745675,59.912826]},"properties":{"name":"Stortorvet"}},{"type":"Feature","geometry":{"type":"Point","coordinates":[10.8442931,59.9454151]},"properties":{"name":"Veitvet"}},{"type":"Feature","geometry":{"type":"Point","coordinates":[10.8357092,59.9438367]},"properties":{"name":"Linderudsletta"}},{"type":"Feature","geometry":{"type":"Point","coordinates":[10.881542,60.054081]},"properties":{"name":"Rotnes"}},{"type":"Feature","geometry":{"type":"Point","coordinates":[10.882363,60.043403]},"properties":{"name":"Nittedal rådhus"}},{"type":"Feature","geometry":{"type":"Point","coordinates":[10.882476,60.042641]},"properties":{"name":"Nittedal rådhus"}},{"type":"Feature","geometry":{"type":"Point","coordinates":[10.89652,60.027244]},"properties":{"name":"Kjul"}},{"type":"Feature","geometry":{"type":"Point","coordinates":[10.896112,60.026068]},"properties":{"name":"Kjul"}},{"type":"Feature","geometry":{"type":"Point","coordinates":[10.916811,60.011759]},"properties":{"name":"Slattum"}},{"type":"Feature","geometry":{"type":"Point","coordinates":[10.917516,59.998691]},"properties":{"name":"Hagan"}},{"type":"Feature","geometry":{"type":"Point","coordinates":[10.917141,59.997284]},"properties":{"name":"Hagan"}},{"type":"Feature","geometry":{"type":"Point","coordinates":[10.919807,59.994877]},"properties":{"name":"Saga"}},{"type":"Feature","geometry":{"type":"Point","coordinates":[10.917964,59.995589]},"properties":{"name":"Saga"}},{"type":"Feature","geometry":{"type":"Point","coordinates":[10.937965,59.989064]},"properties":{"name":"Morteveien"}},{"type":"Feature","geometry":{"type":"Point","coordinates":[10.952237,59.985259]},"properties":{"name":"Mortens kro"}},{"type":"Feature","geometry":{"type":"Point","coordinates":[10.950328,59.98561]},"properties":{"name":"Mortens kro"}},{"type":"Feature","geometry":{"type":"Point","coordinates":[10.977997,59.981553]},"properties":{"name":"Hellerudsletta"}},{"type":"Feature","geometry":{"type":"Point","coordinates":[10.980374,59.981364]},"properties":{"name":"Hellerudsletta"}},{"type":"Feature","geometry":{"type":"Point","coordinates":[11.00134,59.979193]},"properties":{"name":"4"}},{"type":"Feature","geometry":{"type":"Point","coordinates":[10.7659582,59.9628538]},"properties":{"name":"Korsvoll"}},{"type":"Feature","geometry":{"type":"Point","coordinates":[11.185243,59.600026]},"properties":{"name":"Bergerkrysset Askim"}},{"type":"Feature","geometry":{"type":"Point","coordinates":[10.690413,59.80582]},"properties":{"name":"Nesodden kirke"}},{"type":"Feature","geometry":{"type":"Point","coordinates":[10.8868629,60.09015]},"properties":{"name":"Staven"}},{"type":"Feature","geometry":{"type":"Point","coordinates":[10.59586,59.927705]},"properties":{"name":"Hosleveien"}},{"type":"Feature","geometry":{"type":"Point","coordinates":[10.596195,59.927547]},"properties":{"name":"Hosleveien"}},{"type":"Feature","geometry":{"type":"Point","coordinates":[10.646331,59.662575]},"properties":{"name":"Holterteigen"}},{"type":"Feature","geometry":{"type":"Point","coordinates":[10.7921174,59.8073526]},"properties":{"name":"Ingierkollveien"}},{"type":"Feature","geometry":{"type":"Point","coordinates":[10.7644664,59.9345246]},"properties":{"name":"Torshov"}},{"type":"Feature","geometry":{"type":"Point","coordinates":[10.7731722,59.9425667]},"properties":{"name":"Grefsenveien"}},{"type":"Feature","geometry":{"type":"Point","coordinates":[10.7576779,59.9374288]},"properties":{"name":"Arendalsgata"}},{"type":"Feature","geometry":{"type":"Point","coordinates":[10.808742,59.942258]},"properties":{"name":"Bjerke"}},{"type":"Feature","geometry":{"type":"Point","coordinates":[10.811464,59.942697]},"properties":{"name":"Bjerke"}},{"type":"Feature","geometry":{"type":"Point","coordinates":[10.9965545,59.9613754]},"properties":{"name":"Svømmehallen"}},{"type":"Feature","geometry":{"type":"Point","coordinates":[10.996462,59.96139]},"properties":{"name":"Svømmehallen"}},{"type":"Feature","geometry":{"type":"Point","coordinates":[11.0163547,59.9578258]},"properties":{"name":"Sagdalen"}},{"type":"Feature","geometry":{"type":"Point","coordinates":[11.0070608,59.9624014]},"properties":{"name":"Stav"}},{"type":"Feature","geometry":{"type":"Point","coordinates":[11.125642,60.037523]},"properties":{"name":"Lindeberg handel"}},{"type":"Feature","geometry":{"type":"Point","coordinates":[10.995963,59.961245]},"properties":{"name":"Svømmehallen"}},{"type":"Feature","geometry":{"type":"Point","coordinates":[11.0249746,59.9568763]},"properties":{"name":"Jenseberget"}},{"type":"Feature","geometry":{"type":"Point","coordinates":[10.389217,59.746407]},"properties":{"name":"Røyken stasjon"}},{"type":"Feature","geometry":{"type":"Point","coordinates":[10.465832,59.929901]},"properties":{"name":"Saubakken"}},{"type":"Feature","geometry":{"type":"Point","coordinates":[10.46819,59.925746]},"properties":{"name":"Bergerstien"}},{"type":"Feature","geometry":{"type":"Point","coordinates":[10.493298,59.874887]},"properties":{"name":"Billingstadveien"}},{"type":"Feature","geometry":{"type":"Point","coordinates":[10.503498,59.878104]},"properties":{"name":"Slependen"}},{"type":"Feature","geometry":{"type":"Point","coordinates":[10.503327,59.877711]},"properties":{"name":"Slependen"}},{"type":"Feature","geometry":{"type":"Point","coordinates":[10.489591,59.866353]},"properties":{"name":"Nesbru"}},{"type":"Feature","geometry":{"type":"Point","coordinates":[10.488518,59.865201]},"properties":{"name":"Nesbru"}},{"type":"Feature","geometry":{"type":"Point","coordinates":[10.488089,59.869322]},"properties":{"name":"Nedre Berger"}},{"type":"Feature","geometry":{"type":"Point","coordinates":[10.48795,59.869319]},"properties":{"name":"Nedre Berger"}},{"type":"Feature","geometry":{"type":"Point","coordinates":[10.471787,59.933647]},"properties":{"name":"Otto Rykkinds vei"}},{"type":"Feature","geometry":{"type":"Point","coordinates":[10.677729,59.83136]},"properties":{"name":"Berger veiskille"}},{"type":"Feature","geometry":{"type":"Point","coordinates":[10.671169,59.845406]},"properties":{"name":"Skoklefall kirke"}},{"type":"Feature","geometry":{"type":"Point","coordinates":[10.439922,59.746513]},"properties":{"name":"Brynshagen"}},{"type":"Feature","geometry":{"type":"Point","coordinates":[10.78833,59.901899]},"properties":{"name":"Kværner"}},{"type":"Feature","geometry":{"type":"Point","coordinates":[10.682364,59.821018]},"properties":{"name":"Solbergtoppen"}},{"type":"Feature","geometry":{"type":"Point","coordinates":[10.678502,59.829221]},"properties":{"name":"Fjordvangen"}},{"type":"Feature","geometry":{"type":"Point","coordinates":[10.8746178,59.9582036]},"properties":{"name":"Ammerud"}},{"type":"Feature","geometry":{"type":"Point","coordinates":[10.425489,59.742637]},"properties":{"name":"Kornmagasinet"}},{"type":"Feature","geometry":{"type":"Point","coordinates":[10.422651,59.741553]},"properties":{"name":"Kornmagasinet"}},{"type":"Feature","geometry":{"type":"Point","coordinates":[10.440067,59.750852]},"properties":{"name":"Brynsholmen"}},{"type":"Feature","geometry":{"type":"Point","coordinates":[10.4429,59.7527]},"properties":{"name":"Grodalen"}},{"type":"Feature","geometry":{"type":"Point","coordinates":[10.6442108,59.97097]},"properties":{"name":"Grindbakken"}},{"type":"Feature","geometry":{"type":"Point","coordinates":[10.6444903,59.9751612]},"properties":{"name":"Voksen skog"}},{"type":"Feature","geometry":{"type":"Point","coordinates":[10.403937,59.749471]},"properties":{"name":"Vangsvingen"}},{"type":"Feature","geometry":{"type":"Point","coordinates":[11.0233446,59.9567317]},"properties":{"name":"Jenseberget"}},{"type":"Feature","geometry":{"type":"Point","coordinates":[10.46205,59.725471]},"properties":{"name":"Hotvet meieri"}},{"type":"Feature","geometry":{"type":"Point","coordinates":[10.507774,59.722456]},"properties":{"name":"Landik"}},{"type":"Feature","geometry":{"type":"Point","coordinates":[10.513133,59.722394]},"properties":{"name":"Båtstø"}},{"type":"Feature","geometry":{"type":"Point","coordinates":[10.512178,59.726001]},"properties":{"name":"Høvik gård"}},{"type":"Feature","geometry":{"type":"Point","coordinates":[10.488306,59.714939]},"properties":{"name":"Lingsom"}},{"type":"Feature","geometry":{"type":"Point","coordinates":[10.49325,59.71449]},"properties":{"name":"Sundbykrysset"}},{"type":"Feature","geometry":{"type":"Point","coordinates":[10.493472,59.719643]},"properties":{"name":"Hov"}},{"type":"Feature","geometry":{"type":"Point","coordinates":[10.503238,59.722444]},"properties":{"name":"Nordli"}},{"type":"Feature","geometry":{"type":"Point","coordinates":[10.47412,59.720587]},"properties":{"name":"Dalebråten bru"}},{"type":"Feature","geometry":{"type":"Point","coordinates":[10.495875,59.760579]},"properties":{"name":"Breidablikk"}},{"type":"Feature","geometry":{"type":"Point","coordinates":[10.491925,59.76855]},"properties":{"name":"Morbergtoppen"}},{"type":"Feature","geometry":{"type":"Point","coordinates":[10.482945,59.771321]},"properties":{"name":"Sørmarka"}},{"type":"Feature","geometry":{"type":"Point","coordinates":[10.4854036,59.7754353]},"properties":{"name":"Odalsveien"}},{"type":"Feature","geometry":{"type":"Point","coordinates":[10.509539,59.743529]},"properties":{"name":"Ramton"}},{"type":"Feature","geometry":{"type":"Point","coordinates":[10.5114,59.7484]},"properties":{"name":"Svaberg"}},{"type":"Feature","geometry":{"type":"Point","coordinates":[10.512283,59.753548]},"properties":{"name":"Torskeberget"}},{"type":"Feature","geometry":{"type":"Point","coordinates":[10.512092,59.757473]},"properties":{"name":"Baku"}},{"type":"Feature","geometry":{"type":"Point","coordinates":[10.257765,59.704957]},"properties":{"name":"Ospelia"}},{"type":"Feature","geometry":{"type":"Point","coordinates":[10.25677,59.702537]},"properties":{"name":"Lollandkrysset"}},{"type":"Feature","geometry":{"type":"Point","coordinates":[10.258436,59.707246]},"properties":{"name":"Solumstua"}},{"type":"Feature","geometry":{"type":"Point","coordinates":[10.257387,59.709677]},"properties":{"name":"Furulia"}},{"type":"Feature","geometry":{"type":"Point","coordinates":[10.256648,59.711842]},"properties":{"name":"Åskollen"}},{"type":"Feature","geometry":{"type":"Point","coordinates":[10.256923,59.712594]},"properties":{"name":"Åskollen"}},{"type":"Feature","geometry":{"type":"Point","coordinates":[10.657047,59.955032]},"properties":{"name":"Jarbakken"}},{"type":"Feature","geometry":{"type":"Point","coordinates":[10.423011,59.738862]},"properties":{"name":"Bjørnstad"}},{"type":"Feature","geometry":{"type":"Point","coordinates":[10.377593,59.710602]},"properties":{"name":"Hyggenbukta"}},{"type":"Feature","geometry":{"type":"Point","coordinates":[10.3803121,59.7056547]},"properties":{"name":"Steinsbrekka"}},{"type":"Feature","geometry":{"type":"Point","coordinates":[10.3891322,59.7005622]},"properties":{"name":"Sand"}},{"type":"Feature","geometry":{"type":"Point","coordinates":[10.3903347,59.6991774]},"properties":{"name":"Sand"}},{"type":"Feature","geometry":{"type":"Point","coordinates":[10.3921298,59.6960647]},"properties":{"name":"Nilsrudkleiva"}},{"type":"Feature","geometry":{"type":"Point","coordinates":[10.4901949,59.9202104]},"properties":{"name":"Bryn kirke"}},{"type":"Feature","geometry":{"type":"Point","coordinates":[10.512626,59.705385]},"properties":{"name":"Åros sentrum"}},{"type":"Feature","geometry":{"type":"Point","coordinates":[10.491206,59.919878]},"properties":{"name":"Bryn kirke"}},{"type":"Feature","geometry":{"type":"Point","coordinates":[11.1557619,60.1656562]},"properties":{"name":"Gardermoen næringspark"}},{"type":"Feature","geometry":{"type":"Point","coordinates":[10.73442,59.960876]},"properties":{"name":"Kongleveien"}},{"type":"Feature","geometry":{"type":"Point","coordinates":[10.736368,59.961406]},"properties":{"name":"Kongleveien"}},{"type":"Feature","geometry":{"type":"Point","coordinates":[10.994841,59.962358]},"properties":{"name":"Rikard Nordraaks vei"}},{"type":"Feature","geometry":{"type":"Point","coordinates":[10.9420285,59.9407152]},"properties":{"name":"Postterminalen"}},{"type":"Feature","geometry":{"type":"Point","coordinates":[10.917382,60.006333]},"properties":{"name":"Markerud"}},{"type":"Feature","geometry":{"type":"Point","coordinates":[10.916985,60.00514]},"properties":{"name":"Markerud"}},{"type":"Feature","geometry":{"type":"Point","coordinates":[10.7992037,59.851323]},"properties":{"name":"Knud Øyens vei"}},{"type":"Feature","geometry":{"type":"Point","coordinates":[10.7549803,59.7838511]},"properties":{"name":"Østre Oppegård"}},{"type":"Feature","geometry":{"type":"Point","coordinates":[10.7515013,59.7788718]},"properties":{"name":"Oppegård kirke"}},{"type":"Feature","geometry":{"type":"Point","coordinates":[10.487703,59.800208]},"properties":{"name":"Håkavik"}},{"type":"Feature","geometry":{"type":"Point","coordinates":[10.8975025,59.817929]},"properties":{"name":"Brokkenhus"}},{"type":"Feature","geometry":{"type":"Point","coordinates":[10.8990934,59.8178962]},"properties":{"name":"Brokkenhus"}},{"type":"Feature","geometry":{"type":"Point","coordinates":[10.904963,59.815676]},"properties":{"name":"Rolandsveien"}},{"type":"Feature","geometry":{"type":"Point","coordinates":[10.904789,59.815599]},"properties":{"name":"Rolandsveien"}},{"type":"Feature","geometry":{"type":"Point","coordinates":[10.7536646,59.9180736]},"properties":{"name":"Jakob kirke"}},{"type":"Feature","geometry":{"type":"Point","coordinates":[10.733608,59.915964]},"properties":{"name":"Nationaltheatret (G)"}},{"type":"Feature","geometry":{"type":"Point","coordinates":[10.731347,59.91419]},"properties":{"name":"Nationaltheatret (F)"}},{"type":"Feature","geometry":{"type":"Point","coordinates":[10.864449,59.928746]},"properties":{"name":"Trosterud (E)"}},{"type":"Feature","geometry":{"type":"Point","coordinates":[10.9091215,59.8117119]},"properties":{"name":""}},{"type":"Feature","geometry":{"type":"Point","coordinates":[10.627379,59.903254]},"properties":{"name":"Fornebuparken"}},{"type":"Feature","geometry":{"type":"Point","coordinates":[10.626585,59.903143]},"properties":{"name":"Fornebuparken"}},{"type":"Feature","geometry":{"type":"Point","coordinates":[10.6154952,59.9094671]},"properties":{"name":"Nordliveien"}},{"type":"Feature","geometry":{"type":"Point","coordinates":[10.811612,59.793692]},"properties":{"name":"Sofiemyråsen"}},{"type":"Feature","geometry":{"type":"Point","coordinates":[10.810901,59.793333]},"properties":{"name":"Sofiemyråsen"}},{"type":"Feature","geometry":{"type":"Point","coordinates":[10.819033,59.793255]},"properties":{"name":"Granholtet"}},{"type":"Feature","geometry":{"type":"Point","coordinates":[10.816477,59.792618]},"properties":{"name":"Granholtet"}},{"type":"Feature","geometry":{"type":"Point","coordinates":[10.818545,59.792172]},"properties":{"name":"Granholtet"}},{"type":"Feature","geometry":{"type":"Point","coordinates":[10.803576,59.775342]},"properties":{"name":"Greverud kirke"}},{"type":"Feature","geometry":{"type":"Point","coordinates":[10.819731,59.799601]},"properties":{"name":"Fløysbonn"}},{"type":"Feature","geometry":{"type":"Point","coordinates":[10.819919,59.796133]},"properties":{"name":"Taraldrudveien"}},{"type":"Feature","geometry":{"type":"Point","coordinates":[10.216454,59.73091]},"properties":{"name":"Drammen Bangeløkka"}},{"type":"Feature","geometry":{"type":"Point","coordinates":[10.8120742,59.917729]},"properties":{"name":"Teisenkrysset"}},{"type":"Feature","geometry":{"type":"Point","coordinates":[11.042531,59.724561]},"properties":{"name":"Vestby bru"}},{"type":"Feature","geometry":{"type":"Point","coordinates":[11.042665,59.724666]},"properties":{"name":"Vestby bru"}},{"type":"Feature","geometry":{"type":"Point","coordinates":[10.872906,59.823591]},"properties":{"name":"Hanåveien"}},{"type":"Feature","geometry":{"type":"Point","coordinates":[10.871833,59.824042]},"properties":{"name":"Hanåveien"}},{"type":"Feature","geometry":{"type":"Point","coordinates":[10.866412,59.828749]},"properties":{"name":"Store Stensrud"}},{"type":"Feature","geometry":{"type":"Point","coordinates":[10.86657,59.828305]},"properties":{"name":"Store Stensrud"}},{"type":"Feature","geometry":{"type":"Point","coordinates":[10.877001,59.819708]},"properties":{"name":"Lille Stensrud"}},{"type":"Feature","geometry":{"type":"Point","coordinates":[10.876513,59.819958]},"properties":{"name":"Lille Stensrud"}},{"type":"Feature","geometry":{"type":"Point","coordinates":[10.88734,59.81836]},"properties":{"name":"Sværsvann"}},{"type":"Feature","geometry":{"type":"Point","coordinates":[10.887508,59.818433]},"properties":{"name":"Sværsvann"}},{"type":"Feature","geometry":{"type":"Point","coordinates":[10.85958,59.832816]},"properties":{"name":"Godheim"}},{"type":"Feature","geometry":{"type":"Point","coordinates":[10.860656,59.832895]},"properties":{"name":"Godheim"}},{"type":"Feature","geometry":{"type":"Point","coordinates":[10.467765,59.979368]},"properties":{"name":"Bykrysset"}},{"type":"Feature","geometry":{"type":"Point","coordinates":[10.8808694,59.9368677]},"properties":{"name":"Sam. Eydes vei"}},{"type":"Feature","geometry":{"type":"Point","coordinates":[11.024037,59.736343]},"properties":{"name":"Kjellås"}},{"type":"Feature","geometry":{"type":"Point","coordinates":[10.6393395,59.9127894]},"properties":{"name":"Strandveien"}},{"type":"Feature","geometry":{"type":"Point","coordinates":[10.7424913,59.8084562]},"properties":{"name":"Strandkollen"}},{"type":"Feature","geometry":{"type":"Point","coordinates":[10.7767928,59.7398078]},"properties":{"name":"Vinterbro"}},{"type":"Feature","geometry":{"type":"Point","coordinates":[10.7762168,59.81415]},"properties":{"name":"Sagveien"}},{"type":"Feature","geometry":{"type":"Point","coordinates":[10.7992059,59.8293847]},"properties":{"name":"Liakollen"}},{"type":"Feature","geometry":{"type":"Point","coordinates":[10.8097212,59.8194605]},"properties":{"name":"Skjoldbakken"}},{"type":"Feature","geometry":{"type":"Point","coordinates":[10.8165034,59.8026227]},"properties":{"name":"Sofiemyr senter"}},{"type":"Feature","geometry":{"type":"Point","coordinates":[10.7863102,59.9380386]},"properties":{"name":"Sinsenkrysset"}},{"type":"Feature","geometry":{"type":"Point","coordinates":[10.8107436,59.9430085]},"properties":{"name":"Bjerke"}},{"type":"Feature","geometry":{"type":"Point","coordinates":[10.8622677,60.0519726]},"properties":{"name":""}},{"type":"Feature","geometry":{"type":"Point","coordinates":[10.9308185,59.9887882]},"properties":{"name":"Gjelleråstoppen"}},{"type":"Feature","geometry":{"type":"Point","coordinates":[10.8294194,59.9432388]},"properties":{"name":"Øvre Lunden"}},{"type":"Feature","geometry":{"type":"Point","coordinates":[10.913517,59.952918]},"properties":{"name":"Smedstua"}},{"type":"Feature","geometry":{"type":"Point","coordinates":[10.50022,59.71147]},"properties":{"name":"Åros fabrikker"}},{"type":"Feature","geometry":{"type":"Point","coordinates":[10.54276,59.934352]},"properties":{"name":"Stein gård"}},{"type":"Feature","geometry":{"type":"Point","coordinates":[10.886322,59.95969]},"properties":{"name":"Grorudkrysset"}},{"type":"Feature","geometry":{"type":"Point","coordinates":[10.900294,59.963197]},"properties":{"name":"Sveiva"}},{"type":"Feature","geometry":{"type":"Point","coordinates":[10.8862035,59.959739]},"properties":{"name":"Grorudkrysset"}},{"type":"Feature","geometry":{"type":"Point","coordinates":[10.490272,59.953567]},"properties":{"name":"Eineveien"}},{"type":"Feature","geometry":{"type":"Point","coordinates":[10.46738,59.973755]},"properties":{"name":"Guribysagveien"}},{"type":"Feature","geometry":{"type":"Point","coordinates":[10.993959,59.933382]},"properties":{"name":"Ahus"}},{"type":"Feature","geometry":{"type":"Point","coordinates":[10.993506,59.933351]},"properties":{"name":"Ahus"}},{"type":"Feature","geometry":{"type":"Point","coordinates":[10.221612,59.715817]},"properties":{"name":"Fjell"}},{"type":"Feature","geometry":{"type":"Point","coordinates":[10.9179521,59.9956995]},"properties":{"name":"Saga"}},{"type":"Feature","geometry":{"type":"Point","coordinates":[10.901712,59.963713]},"properties":{"name":"Sveiva"}},{"type":"Feature","geometry":{"type":"Point","coordinates":[10.92803,59.976054]},"properties":{"name":"Tokerudbekken"}},{"type":"Feature","geometry":{"type":"Point","coordinates":[10.925713,59.975614]},"properties":{"name":"Tokerudbekken"}},{"type":"Feature","geometry":{"type":"Point","coordinates":[10.480906,59.905754]},"properties":{"name":"Kirkerud"}},{"type":"Feature","geometry":{"type":"Point","coordinates":[10.481078,59.905504]},"properties":{"name":"Kirkerud"}},{"type":"Feature","geometry":{"type":"Point","coordinates":[10.472132,59.917091]},"properties":{"name":"Brennejordet"}},{"type":"Feature","geometry":{"type":"Point","coordinates":[10.472065,59.917173]},"properties":{"name":"Brennejordet"}},{"type":"Feature","geometry":{"type":"Point","coordinates":[10.7102064,59.9101499]},"properties":{"name":"Hjortnes"}},{"type":"Feature","geometry":{"type":"Point","coordinates":[10.523001,59.670341]},"properties":{"name":"Åsveien industriområde"}},{"type":"Feature","geometry":{"type":"Point","coordinates":[10.522773,59.670357]},"properties":{"name":"Åsveien industriområde"}},{"type":"Feature","geometry":{"type":"Point","coordinates":[10.514267,59.655448]},"properties":{"name":"Ledangtoppen"}},{"type":"Feature","geometry":{"type":"Point","coordinates":[10.514428,59.655767]},"properties":{"name":"Ledangtoppen"}},{"type":"Feature","geometry":{"type":"Point","coordinates":[10.495395,59.632262]},"properties":{"name":"Steinerskolen Hurum"}},{"type":"Feature","geometry":{"type":"Point","coordinates":[10.60197,59.646511]},"properties":{"name":"Storsand sentrum"}},{"type":"Feature","geometry":{"type":"Point","coordinates":[10.597947,59.653455]},"properties":{"name":"Ellingstadveien"}},{"type":"Feature","geometry":{"type":"Point","coordinates":[10.487968,59.872796]},"properties":{"name":"Bergerveien"}},{"type":"Feature","geometry":{"type":"Point","coordinates":[10.489285,59.874077]},"properties":{"name":"Billingstadveien"}},{"type":"Feature","geometry":{"type":"Point","coordinates":[10.500569,59.875502]},"properties":{"name":"IKEA Slependen"}},{"type":"Feature","geometry":{"type":"Point","coordinates":[10.500408,59.876033]},"properties":{"name":"IKEA Slependen"}},{"type":"Feature","geometry":{"type":"Point","coordinates":[10.620185,59.907574]},"properties":{"name":"Oksenøyveien"}},{"type":"Feature","geometry":{"type":"Point","coordinates":[10.6373,59.913177]},"properties":{"name":"Lysaker stasjon (A)"}},{"type":"Feature","geometry":{"type":"Point","coordinates":[10.639406,59.912744]},"properties":{"name":"Strandveien (H)"}},{"type":"Feature","geometry":{"type":"Point","coordinates":[10.8731826,59.6765002]},"properties":{"name":""}},{"type":"Feature","geometry":{"type":"Point","coordinates":[10.658935,59.69125]},"properties":{"name":"Frogn videregående skole"}},{"type":"Feature","geometry":{"type":"Point","coordinates":[10.66107,59.685394]},"properties":{"name":"Heer"}},{"type":"Feature","geometry":{"type":"Point","coordinates":[10.664124,59.679477]},"properties":{"name":"Gislerud"}},{"type":"Feature","geometry":{"type":"Point","coordinates":[10.648013,59.669665]},"properties":{"name":"Ullerudsletta"}},{"type":"Feature","geometry":{"type":"Point","coordinates":[11.0371924,59.9515545]},"properties":{"name":""}},{"type":"Feature","geometry":{"type":"Point","coordinates":[10.741725,59.9243595]},"properties":{"name":"St. Hanshaugen"}},{"type":"Feature","geometry":{"type":"Point","coordinates":[10.75421,59.959196]},"properties":{"name":"Havnabakken"}},{"type":"Feature","geometry":{"type":"Point","coordinates":[10.754859,59.959165]},"properties":{"name":"Havnabakken"}},{"type":"Feature","geometry":{"type":"Point","coordinates":[11.0745508,60.0295027]},"properties":{"name":""}},{"type":"Feature","geometry":{"type":"Point","coordinates":[10.4103,59.6904]},"properties":{"name":"Gjerdalsjordet"}},{"type":"Feature","geometry":{"type":"Point","coordinates":[10.4104,59.6903]},"properties":{"name":"Gjerdalsjordet"}},{"type":"Feature","geometry":{"type":"Point","coordinates":[10.9662872,59.9147202]},"properties":{"name":"Finstadlia"}},{"type":"Feature","geometry":{"type":"Point","coordinates":[10.778204,59.9303385]},"properties":{"name":"Rosenhoff"}},{"type":"Feature","geometry":{"type":"Point","coordinates":[10.596461,59.91465]},"properties":{"name":"Ringstabekkveien"}},{"type":"Feature","geometry":{"type":"Point","coordinates":[10.746061,59.663373]},"properties":{"name":"Korsegården"}},{"type":"Feature","geometry":{"type":"Point","coordinates":[10.744685,59.663486]},"properties":{"name":"Korsegården"}},{"type":"Feature","geometry":{"type":"Point","coordinates":[10.7887381,59.8493141]},"properties":{"name":"Ingiers vei"}},{"type":"Feature","geometry":{"type":"Point","coordinates":[10.78667,59.944175]},"properties":{"name":"Nordre Åsen"}},{"type":"Feature","geometry":{"type":"Point","coordinates":[10.7332316,59.9208398]},"properties":{"name":"Frydenlund"}},{"type":"Feature","geometry":{"type":"Point","coordinates":[11.0668953,60.0315279]},"properties":{"name":"Vardefjellet"}},{"type":"Feature","geometry":{"type":"Point","coordinates":[11.066806,60.031487]},"properties":{"name":"Vardefjellet"}},{"type":"Feature","geometry":{"type":"Point","coordinates":[10.7330327,59.9295721]},"properties":{"name":"Stensgata"}},{"type":"Feature","geometry":{"type":"Point","coordinates":[10.7302136,59.9215667]},"properties":{"name":"Welhavens gate"}},{"type":"Feature","geometry":{"type":"Point","coordinates":[10.7265494,59.9225486]},"properties":{"name":"Homansbyen"}},{"type":"Feature","geometry":{"type":"Point","coordinates":[10.7680112,59.9084292]},"properties":{"name":"Munkegata"}},{"type":"Feature","geometry":{"type":"Point","coordinates":[10.7678613,59.9061211]},"properties":{"name":"St. Halvards plass"}},{"type":"Feature","geometry":{"type":"Point","coordinates":[11.022908,60.136799]},"properties":{"name":"Eltonåsen"}},{"type":"Feature","geometry":{"type":"Point","coordinates":[11.141792,59.643489]},"properties":{"name":"Holm"}},{"type":"Feature","geometry":{"type":"Point","coordinates":[10.8030226,59.903883]},"properties":{"name":"Furuveien"}},{"type":"Feature","geometry":{"type":"Point","coordinates":[10.782014,59.936576]},"properties":{"name":"Sinsen T (A)"}},{"type":"Feature","geometry":{"type":"Point","coordinates":[10.830079,59.701547]},"properties":{"name":"Kjølstadhøgda"}},{"type":"Feature","geometry":{"type":"Point","coordinates":[10.834976,59.713376]},"properties":{"name":"Eikeliveien"}},{"type":"Feature","geometry":{"type":"Point","coordinates":[10.805142,59.666929]},"properties":{"name":"Sentralholtet"}},{"type":"Feature","geometry":{"type":"Point","coordinates":[10.806604,59.666047]},"properties":{"name":"Sentralholtet"}},{"type":"Feature","geometry":{"type":"Point","coordinates":[10.793971,59.663656]},"properties":{"name":"1"}},{"type":"Feature","geometry":{"type":"Point","coordinates":[10.804941,59.667382]},"properties":{"name":"Sentralholtet"}},{"type":"Feature","geometry":{"type":"Point","coordinates":[10.805963,59.673291]},"properties":{"name":"Nyborgveien"}},{"type":"Feature","geometry":{"type":"Point","coordinates":[10.6442629,59.9707973]},"properties":{"name":"Grindbakken"}},{"type":"Feature","geometry":{"type":"Point","coordinates":[10.641117,59.960568]},"properties":{"name":"Peder Ankers plass"}},{"type":"Feature","geometry":{"type":"Point","coordinates":[10.638231,59.96937]},"properties":{"name":"Bogstad badeplass"}},{"type":"Feature","geometry":{"type":"Point","coordinates":[10.704739,59.945051]},"properties":{"name":"Risalléen"}},{"type":"Feature","geometry":{"type":"Point","coordinates":[10.58371,59.903907]},"properties":{"name":"Snoveien"}},{"type":"Feature","geometry":{"type":"Point","coordinates":[10.3,60.0746]},"properties":{"name":"Paddevika"}},{"type":"Feature","geometry":{"type":"Point","coordinates":[10.814305,59.978517]},"properties":{"name":"Kalland"}},{"type":"Feature","geometry":{"type":"Point","coordinates":[10.803629,59.976455]},"properties":{"name":"Kringlevann"}},{"type":"Feature","geometry":{"type":"Point","coordinates":[10.807108,59.977302]},"properties":{"name":"Setervollveien"}},{"type":"Feature","geometry":{"type":"Point","coordinates":[10.810934,59.976463]},"properties":{"name":"Linderudkollen"}},{"type":"Feature","geometry":{"type":"Point","coordinates":[10.814409,59.978443]},"properties":{"name":"Kalland"}},{"type":"Feature","geometry":{"type":"Point","coordinates":[10.803737,59.976385]},"properties":{"name":"Kringlevann"}},{"type":"Feature","geometry":{"type":"Point","coordinates":[10.817561,59.979201]},"properties":{"name":"Solemskogen"}},{"type":"Feature","geometry":{"type":"Point","coordinates":[10.806347,59.977188]},"properties":{"name":"Setervollveien"}},{"type":"Feature","geometry":{"type":"Point","coordinates":[10.810794,59.976433]},"properties":{"name":"Linderudkollen"}},{"type":"Feature","geometry":{"type":"Point","coordinates":[10.5004717,59.8874679]},"properties":{"name":"Nedre Ås"}},{"type":"Feature","geometry":{"type":"Point","coordinates":[10.686371,59.907708]},"properties":{"name":"Folkemuseet"}},{"type":"Feature","geometry":{"type":"Point","coordinates":[10.68646,59.904523]},"properties":{"name":"Vikingskipene"}},{"type":"Feature","geometry":{"type":"Point","coordinates":[10.686835,59.903546]},"properties":{"name":"Fredriksborg"}},{"type":"Feature","geometry":{"type":"Point","coordinates":[10.686787,59.90483]},"properties":{"name":"Vikingskipene"}},{"type":"Feature","geometry":{"type":"Point","coordinates":[10.687415,59.907321]},"properties":{"name":"Folkemuseet"}},{"type":"Feature","geometry":{"type":"Point","coordinates":[10.686878,59.903224]},"properties":{"name":"Fredriksborg"}},{"type":"Feature","geometry":{"type":"Point","coordinates":[10.78708,59.895487]},"properties":{"name":"Simensbråten"}},{"type":"Feature","geometry":{"type":"Point","coordinates":[10.427286,59.560324]},"properties":{"name":"Holmsbu torg"}},{"type":"Feature","geometry":{"type":"Point","coordinates":[10.657591,59.946709]},"properties":{"name":"Hovseter (A)"}},{"type":"Feature","geometry":{"type":"Point","coordinates":[10.6573746,59.9467499]},"properties":{"name":"Hovseter T"}},{"type":"Feature","geometry":{"type":"Point","coordinates":[10.899709,59.944945]},"properties":{"name":"Gransletta"}},{"type":"Feature","geometry":{"type":"Point","coordinates":[10.899685,59.944702]},"properties":{"name":"Gransletta"}},{"type":"Feature","geometry":{"type":"Point","coordinates":[10.839765,59.8804049]},"properties":{"name":"Martin Linges vei"}},{"type":"Feature","geometry":{"type":"Point","coordinates":[10.844269,59.867433]},"properties":{"name":"Skullerudveien"}},{"type":"Feature","geometry":{"type":"Point","coordinates":[10.844039,59.867334]},"properties":{"name":"Skullerudveien"}},{"type":"Feature","geometry":{"type":"Point","coordinates":[10.8060064,59.8943294]},"properties":{"name":"Ryensvingen (H)"}},{"type":"Feature","geometry":{"type":"Point","coordinates":[10.805912,59.894483]},"properties":{"name":"Ryensvingen (G)"}},{"type":"Feature","geometry":{"type":"Point","coordinates":[10.8098514,59.8911157]},"properties":{"name":"Sandstuveien"}},{"type":"Feature","geometry":{"type":"Point","coordinates":[10.8399361,59.8803337]},"properties":{"name":"Martin Linges vei"}},{"type":"Feature","geometry":{"type":"Point","coordinates":[10.954106,59.78891]},"properties":{"name":"Rausjøveien"}},{"type":"Feature","geometry":{"type":"Point","coordinates":[10.8460756,59.9182632]},"properties":{"name":"Nåkkves vei"}},{"type":"Feature","geometry":{"type":"Point","coordinates":[10.8442337,59.9130074]},"properties":{"name":"Tveita"}},{"type":"Feature","geometry":{"type":"Point","coordinates":[10.551472,59.93226]},"properties":{"name":"Steinskogen gravlund"}},{"type":"Feature","geometry":{"type":"Point","coordinates":[10.7530083,59.7330084]},"properties":{"name":"Fossekallen"}},{"type":"Feature","geometry":{"type":"Point","coordinates":[10.7508139,59.7312977]},"properties":{"name":"Tømmerveien"}},{"type":"Feature","geometry":{"type":"Point","coordinates":[10.7535231,59.733174]},"properties":{"name":"Fossekallen"}},{"type":"Feature","geometry":{"type":"Point","coordinates":[10.7563092,59.7344242]},"properties":{"name":"Tiursvingen"}},{"type":"Feature","geometry":{"type":"Point","coordinates":[10.495264,59.927989]},"properties":{"name":"Langleiken"}},{"type":"Feature","geometry":{"type":"Point","coordinates":[10.494958,59.929474]},"properties":{"name":"Langleiken"}},{"type":"Feature","geometry":{"type":"Point","coordinates":[11.006482,59.962459]},"properties":{"name":"Stav"}},{"type":"Feature","geometry":{"type":"Point","coordinates":[10.882575,59.790931]},"properties":{"name":"Siggerud sentrum"}},{"type":"Feature","geometry":{"type":"Point","coordinates":[10.881333,59.790984]},"properties":{"name":"Siggerud sentrum"}},{"type":"Feature","geometry":{"type":"Point","coordinates":[10.7512466,59.9375997]},"properties":{"name":"Sagene"}},{"type":"Feature","geometry":{"type":"Point","coordinates":[10.999027,59.9678469]},"properties":{"name":"Skjetten senter"}},{"type":"Feature","geometry":{"type":"Point","coordinates":[10.8843855,60.0947348]},"properties":{"name":"Gunhildstua"}},{"type":"Feature","geometry":{"type":"Point","coordinates":[10.46102,59.919257]},"properties":{"name":"Bærums meieri"}},{"type":"Feature","geometry":{"type":"Point","coordinates":[10.930637,59.988793]},"properties":{"name":"Gjelleråstoppen"}},{"type":"Feature","geometry":{"type":"Point","coordinates":[10.7106291,59.9460953]},"properties":{"name":"Gaustad T"}},{"type":"Feature","geometry":{"type":"Point","coordinates":[10.886314,60.038254]},"properties":{"name":"Myra"}},{"type":"Feature","geometry":{"type":"Point","coordinates":[10.886633,60.037531]},"properties":{"name":"Myra"}},{"type":"Feature","geometry":{"type":"Point","coordinates":[11.0398666,59.9499745]},"properties":{"name":""}},{"type":"Feature","geometry":{"type":"Point","coordinates":[10.4978293,59.9250995]},"properties":{"name":"Åsbråtan"}},{"type":"Feature","geometry":{"type":"Point","coordinates":[10.497471,59.925759]},"properties":{"name":"Åsbråtan"}},{"type":"Feature","geometry":{"type":"Point","coordinates":[10.8760662,59.7252509]},"properties":{"name":""}},{"type":"Feature","geometry":{"type":"Point","coordinates":[10.6287743,59.9489646]},"properties":{"name":"Grini"}},{"type":"Feature","geometry":{"type":"Point","coordinates":[11.05172,59.723127]},"properties":{"name":"Vågsenteret"}},{"type":"Feature","geometry":{"type":"Point","coordinates":[11.04998,59.723506]},"properties":{"name":"Vågsenteret"}},{"type":"Feature","geometry":{"type":"Point","coordinates":[10.6563179,59.9448819]},"properties":{"name":"Huseby skole"}},{"type":"Feature","geometry":{"type":"Point","coordinates":[10.26094,59.792427]},"properties":{"name":"Lierbyen skole"}},{"type":"Feature","geometry":{"type":"Point","coordinates":[10.578498,59.89957]},"properties":{"name":"Høvik kirke"}},{"type":"Feature","geometry":{"type":"Point","coordinates":[10.574679,59.898084]},"properties":{"name":"Glassverkveien"}},{"type":"Feature","geometry":{"type":"Point","coordinates":[11.0470951,60.019269]},"properties":{"name":"Vardeåsen"}},{"type":"Feature","geometry":{"type":"Point","coordinates":[11.0117723,59.9590955]},"properties":{"name":""}},{"type":"Feature","geometry":{"type":"Point","coordinates":[10.732905,59.914463]},"properties":{"name":"Nationaltheatret (D)"}},{"type":"Feature","geometry":{"type":"Point","coordinates":[11.010931,59.980143]},"properties":{"name":"Kjeller bru"}},{"type":"Feature","geometry":{"type":"Point","coordinates":[11.09856,59.997766]},"properties":{"name":"Heishagen"}},{"type":"Feature","geometry":{"type":"Point","coordinates":[11.088188,59.996981]},"properties":{"name":"Leirsund"}},{"type":"Feature","geometry":{"type":"Point","coordinates":[11.014323,59.9793712]},"properties":{"name":"Kjellerholen"}},{"type":"Feature","geometry":{"type":"Point","coordinates":[11.017479,59.983056]},"properties":{"name":"Tandberg"}},{"type":"Feature","geometry":{"type":"Point","coordinates":[11.023608,59.976287]},"properties":{"name":"Holtveien"}},{"type":"Feature","geometry":{"type":"Point","coordinates":[11.086933,59.996446]},"properties":{"name":"Leirsund"}},{"type":"Feature","geometry":{"type":"Point","coordinates":[11.098544,59.997928]},"properties":{"name":"Heishagen"}},{"type":"Feature","geometry":{"type":"Point","coordinates":[11.041276,59.972951]},"properties":{"name":"Kjeller"}},{"type":"Feature","geometry":{"type":"Point","coordinates":[10.7598503,59.7925147]},"properties":{"name":"Svartskogtoppen"}},{"type":"Feature","geometry":{"type":"Point","coordinates":[10.5028724,59.9418858]},"properties":{"name":"Bærums Verk"}},{"type":"Feature","geometry":{"type":"Point","coordinates":[11.031454,60.014348]},"properties":{"name":"Åsenhagen"}},{"type":"Feature","geometry":{"type":"Point","coordinates":[11.031786,60.014355]},"properties":{"name":"Åsenhagen"}},{"type":"Feature","geometry":{"type":"Point","coordinates":[10.6495738,59.9155272]},"properties":{"name":"Vækerø"}},{"type":"Feature","geometry":{"type":"Point","coordinates":[10.7223166,59.9097595]},"properties":{"name":"Tjuvholmen"}},{"type":"Feature","geometry":{"type":"Point","coordinates":[10.7614769,59.7884512]},"properties":{"name":"Svartskogtoppen"}},{"type":"Feature","geometry":{"type":"Point","coordinates":[10.773526,59.880852]},"properties":{"name":"Nedre Bekkelaget"}},{"type":"Feature","geometry":{"type":"Point","coordinates":[10.4984137,59.9214521]},"properties":{"name":"Kremlegrenda"}},{"type":"Feature","geometry":{"type":"Point","coordinates":[11.045401,60.032324]},"properties":{"name":"Flatner"}},{"type":"Feature","geometry":{"type":"Point","coordinates":[11.044645,60.031498]},"properties":{"name":"Flatner"}},{"type":"Feature","geometry":{"type":"Point","coordinates":[10.809729,59.8912784]},"properties":{"name":"Sandstuveien"}},{"type":"Feature","geometry":{"type":"Point","coordinates":[11.034619,60.022831]},"properties":{"name":"Myrersletta"}},{"type":"Feature","geometry":{"type":"Point","coordinates":[11.037491,60.026524]},"properties":{"name":"Leikvoll"}},{"type":"Feature","geometry":{"type":"Point","coordinates":[11.035654,60.023663]},"properties":{"name":"Myrersletta"}},{"type":"Feature","geometry":{"type":"Point","coordinates":[11.038462,60.027085]},"properties":{"name":"Leikvoll"}},{"type":"Feature","geometry":{"type":"Point","coordinates":[11.0309618,60.0092602]},"properties":{"name":""}},{"type":"Feature","geometry":{"type":"Point","coordinates":[10.479731,59.932933]},"properties":{"name":"Eineåsen"}},{"type":"Feature","geometry":{"type":"Point","coordinates":[11.030864,60.009247]},"properties":{"name":"Åsenhagen skole"}},{"type":"Feature","geometry":{"type":"Point","coordinates":[11.030729,60.010254]},"properties":{"name":"Åsenhagen skole"}},{"type":"Feature","geometry":{"type":"Point","coordinates":[11.0293758,59.9938452]},"properties":{"name":""}},{"type":"Feature","geometry":{"type":"Point","coordinates":[11.0163896,60.0076372]},"properties":{"name":""}},{"type":"Feature","geometry":{"type":"Point","coordinates":[11.0147114,60.0075429]},"properties":{"name":""}},{"type":"Feature","geometry":{"type":"Point","coordinates":[11.0234512,60.0036027]},"properties":{"name":""}},{"type":"Feature","geometry":{"type":"Point","coordinates":[11.0221059,60.0038113]},"properties":{"name":""}},{"type":"Feature","geometry":{"type":"Point","coordinates":[11.0190422,60.0064481]},"properties":{"name":""}},{"type":"Feature","geometry":{"type":"Point","coordinates":[11.0519933,60.0156136]},"properties":{"name":"Vardeveien"}},{"type":"Feature","geometry":{"type":"Point","coordinates":[11.0267328,59.992686]},"properties":{"name":""}},{"type":"Feature","geometry":{"type":"Point","coordinates":[11.0239564,60.0015108]},"properties":{"name":""}},{"type":"Feature","geometry":{"type":"Point","coordinates":[11.0240232,59.9948531]},"properties":{"name":""}},{"type":"Feature","geometry":{"type":"Point","coordinates":[11.0217325,59.9975943]},"properties":{"name":""}},{"type":"Feature","geometry":{"type":"Point","coordinates":[11.016452,60.007574]},"properties":{"name":"Tæruddalen"}},{"type":"Feature","geometry":{"type":"Point","coordinates":[11.01701,60.012363]},"properties":{"name":"Tærudhallen"}},{"type":"Feature","geometry":{"type":"Point","coordinates":[11.023538,60.003548]},"properties":{"name":"Midtskogveien"}},{"type":"Feature","geometry":{"type":"Point","coordinates":[11.019083,60.006543]},"properties":{"name":"Eventyråsen"}},{"type":"Feature","geometry":{"type":"Point","coordinates":[11.014545,60.007576]},"properties":{"name":"Tæruddalen"}},{"type":"Feature","geometry":{"type":"Point","coordinates":[11.019555,60.005627]},"properties":{"name":"Eventyråsen"}},{"type":"Feature","geometry":{"type":"Point","coordinates":[11.0139861,59.9822402]},"properties":{"name":""}},{"type":"Feature","geometry":{"type":"Point","coordinates":[11.0173431,59.9830856]},"properties":{"name":""}},{"type":"Feature","geometry":{"type":"Point","coordinates":[11.022085,60.003874]},"properties":{"name":"Midtskogveien"}},{"type":"Feature","geometry":{"type":"Point","coordinates":[11.021843,59.997629]},"properties":{"name":"Brånås skole"}},{"type":"Feature","geometry":{"type":"Point","coordinates":[11.021623,59.997012]},"properties":{"name":"Brånås skole"}},{"type":"Feature","geometry":{"type":"Point","coordinates":[11.029458,59.993893]},"properties":{"name":"Lund i Brånåsdalen"}},{"type":"Feature","geometry":{"type":"Point","coordinates":[11.029069,59.994068]},"properties":{"name":"Lund i Brånåsdalen"}},{"type":"Feature","geometry":{"type":"Point","coordinates":[11.024067,60.00155]},"properties":{"name":"Brånås skog"}},{"type":"Feature","geometry":{"type":"Point","coordinates":[11.023852,60.001473]},"properties":{"name":"Brånås skog"}},{"type":"Feature","geometry":{"type":"Point","coordinates":[10.763058,60.004362]},"properties":{"name":"Maridalen skole"}},{"type":"Feature","geometry":{"type":"Point","coordinates":[10.772618,60.014805]},"properties":{"name":"Rugda"}},{"type":"Feature","geometry":{"type":"Point","coordinates":[10.752847,59.98618]},"properties":{"name":"Skjerven"}},{"type":"Feature","geometry":{"type":"Point","coordinates":[10.766202,60.009325]},"properties":{"name":"Turtermarka"}},{"type":"Feature","geometry":{"type":"Point","coordinates":[10.761369,59.977015]},"properties":{"name":"Brennenga"}},{"type":"Feature","geometry":{"type":"Point","coordinates":[10.764222,59.972978]},"properties":{"name":"Engelsrud"}},{"type":"Feature","geometry":{"type":"Point","coordinates":[10.752923,59.988535]},"properties":{"name":"Saga"}},{"type":"Feature","geometry":{"type":"Point","coordinates":[10.757313,59.979922]},"properties":{"name":"Låkeberget"}},{"type":"Feature","geometry":{"type":"Point","coordinates":[10.786597,59.944237]},"properties":{"name":"Nordre Åsen"}},{"type":"Feature","geometry":{"type":"Point","coordinates":[10.7955,59.966712]},"properties":{"name":"Rønningen"}},{"type":"Feature","geometry":{"type":"Point","coordinates":[10.792933,59.949575]},"properties":{"name":"Sanatoriet"}},{"type":"Feature","geometry":{"type":"Point","coordinates":[10.798649,59.955448]},"properties":{"name":"Grefsenseteren"}},{"type":"Feature","geometry":{"type":"Point","coordinates":[10.796176,59.964913]},"properties":{"name":"Heia"}},{"type":"Feature","geometry":{"type":"Point","coordinates":[10.792691,59.946475]},"properties":{"name":"Aschehougs vei"}},{"type":"Feature","geometry":{"type":"Point","coordinates":[10.798107,59.958386]},"properties":{"name":"Trollveiskrysset"}},{"type":"Feature","geometry":{"type":"Point","coordinates":[10.795942,59.9514]},"properties":{"name":"Grefsenkollveien"}},{"type":"Feature","geometry":{"type":"Point","coordinates":[10.797375,59.952742]},"properties":{"name":"Akebakken"}},{"type":"Feature","geometry":{"type":"Point","coordinates":[10.792581,59.946507]},"properties":{"name":"Aschehougs vei"}},{"type":"Feature","geometry":{"type":"Point","coordinates":[10.795846,59.962594]},"properties":{"name":"Gulldalen"}},{"type":"Feature","geometry":{"type":"Point","coordinates":[10.804093,59.958694]},"properties":{"name":"Grefsenkollen"}},{"type":"Feature","geometry":{"type":"Point","coordinates":[10.79337,59.949716]},"properties":{"name":"Sanatoriet"}},{"type":"Feature","geometry":{"type":"Point","coordinates":[10.798426,59.955338]},"properties":{"name":"Grefsenseteren"}},{"type":"Feature","geometry":{"type":"Point","coordinates":[10.7959756,59.951329]},"properties":{"name":"Grefsenkollveien"}},{"type":"Feature","geometry":{"type":"Point","coordinates":[10.796959,59.952541]},"properties":{"name":"Akebakken"}},{"type":"Feature","geometry":{"type":"Point","coordinates":[10.773025,59.942512]},"properties":{"name":"Grefsenveien"}},{"type":"Feature","geometry":{"type":"Point","coordinates":[10.778449,59.945282]},"properties":{"name":"Storo (A)"}},{"type":"Feature","geometry":{"type":"Point","coordinates":[10.773586,59.942798]},"properties":{"name":"Grefsenveien"}},{"type":"Feature","geometry":{"type":"Point","coordinates":[10.527688,59.889795]},"properties":{"name":"Bærum rådhus"}},{"type":"Feature","geometry":{"type":"Point","coordinates":[10.486528,59.855324]},"properties":{"name":"Holmen bru"}},{"type":"Feature","geometry":{"type":"Point","coordinates":[10.4316073,59.8358446]},"properties":{"name":"Trekanten"}},{"type":"Feature","geometry":{"type":"Point","coordinates":[10.519409,59.886842]},"properties":{"name":"Kjørbokollen"}},{"type":"Feature","geometry":{"type":"Point","coordinates":[10.527952,59.889895]},"properties":{"name":"Bærum rådhus"}},{"type":"Feature","geometry":{"type":"Point","coordinates":[10.5189695,59.8868119]},"properties":{"name":"Kjørbokollen"}},{"type":"Feature","geometry":{"type":"Point","coordinates":[10.521574,59.871952]},"properties":{"name":"Gråtenveien"}},{"type":"Feature","geometry":{"type":"Point","coordinates":[10.54205,59.868605]},"properties":{"name":"Sjøheim"}},{"type":"Feature","geometry":{"type":"Point","coordinates":[10.508863,59.873727]},"properties":{"name":"Grønsund"}},{"type":"Feature","geometry":{"type":"Point","coordinates":[10.525761,59.873184]},"properties":{"name":"Hovedgårdsveien"}},{"type":"Feature","geometry":{"type":"Point","coordinates":[10.5250262,59.888245]},"properties":{"name":"Kjørbo"}},{"type":"Feature","geometry":{"type":"Point","coordinates":[10.517078,59.859498]},"properties":{"name":"Søndre brygge"}},{"type":"Feature","geometry":{"type":"Point","coordinates":[10.505671,59.874532]},"properties":{"name":"Grønsund"}},{"type":"Feature","geometry":{"type":"Point","coordinates":[10.513596,59.8808471]},"properties":{"name":"Gyssestad"}},{"type":"Feature","geometry":{"type":"Point","coordinates":[10.528915,59.862775]},"properties":{"name":"Søndre vei"}},{"type":"Feature","geometry":{"type":"Point","coordinates":[10.513983,59.868927]},"properties":{"name":"Vesthellinga"}},{"type":"Feature","geometry":{"type":"Point","coordinates":[10.5255832,59.8883354]},"properties":{"name":"Kjørbo"}},{"type":"Feature","geometry":{"type":"Point","coordinates":[10.514364,59.862939]},"properties":{"name":"Tjernveien"}},{"type":"Feature","geometry":{"type":"Point","coordinates":[10.5149527,59.8817238]},"properties":{"name":"Gyssestad"}},{"type":"Feature","geometry":{"type":"Point","coordinates":[10.540006,59.871858]},"properties":{"name":"Margretes vei"}},{"type":"Feature","geometry":{"type":"Point","coordinates":[10.514879,59.872755]},"properties":{"name":"Hals"}},{"type":"Feature","geometry":{"type":"Point","coordinates":[10.5146471,59.8726429]},"properties":{"name":"Hals"}},{"type":"Feature","geometry":{"type":"Point","coordinates":[10.535057,59.873552]},"properties":{"name":"Taglugnveien"}},{"type":"Feature","geometry":{"type":"Point","coordinates":[10.516405,59.870961]},"properties":{"name":"Otto Blehrs vei"}},{"type":"Feature","geometry":{"type":"Point","coordinates":[10.516655,59.871213]},"properties":{"name":"Otto Blehrs vei"}},{"type":"Feature","geometry":{"type":"Point","coordinates":[10.5223932,59.8607182]},"properties":{"name":"Vendla"}},{"type":"Feature","geometry":{"type":"Point","coordinates":[10.420819,59.849439]},"properties":{"name":"Vøyen"}},{"type":"Feature","geometry":{"type":"Point","coordinates":[10.423475,59.846061]},"properties":{"name":"Hanevold"}},{"type":"Feature","geometry":{"type":"Point","coordinates":[10.4318982,59.8355428]},"properties":{"name":"Trekanten"}},{"type":"Feature","geometry":{"type":"Point","coordinates":[10.492499,59.854777]},"properties":{"name":"Holmenbukta"}},{"type":"Feature","geometry":{"type":"Point","coordinates":[10.490506,59.863091]},"properties":{"name":"Nesåsen"}},{"type":"Feature","geometry":{"type":"Point","coordinates":[10.4258,59.843599]},"properties":{"name":"Frydendal"}},{"type":"Feature","geometry":{"type":"Point","coordinates":[10.493885,59.858717]},"properties":{"name":"Landøya"}},{"type":"Feature","geometry":{"type":"Point","coordinates":[10.75252,59.993982]},"properties":{"name":"Hammeren"}},{"type":"Feature","geometry":{"type":"Point","coordinates":[10.766277,59.996517]},"properties":{"name":"Kirkeby"}},{"type":"Feature","geometry":{"type":"Point","coordinates":[10.771987,59.999759]},"properties":{"name":"Maridalen kirke"}},{"type":"Feature","geometry":{"type":"Point","coordinates":[11.007067,59.971947]},"properties":{"name":"Solvangen"}},{"type":"Feature","geometry":{"type":"Point","coordinates":[11.005377,59.972841]},"properties":{"name":"Tårnbyveien"}},{"type":"Feature","geometry":{"type":"Point","coordinates":[11.004747,59.973413]},"properties":{"name":"Tårnbyveien"}},{"type":"Feature","geometry":{"type":"Point","coordinates":[10.782327,59.936671]},"properties":{"name":"Sinsen T"}},{"type":"Feature","geometry":{"type":"Point","coordinates":[11.0512291,59.9417172]},"properties":{"name":""}},{"type":"Feature","geometry":{"type":"Point","coordinates":[11.107416,59.992718]},"properties":{"name":"Asak skole"}},{"type":"Feature","geometry":{"type":"Point","coordinates":[11.108186,59.993459]},"properties":{"name":"Asak skole"}},{"type":"Feature","geometry":{"type":"Point","coordinates":[10.77659,59.926789]},"properties":{"name":"Carl Berners plass (F)"}},{"type":"Feature","geometry":{"type":"Point","coordinates":[10.77674,59.926775]},"properties":{"name":"Carl Berners plass (C)"}},{"type":"Feature","geometry":{"type":"Point","coordinates":[10.7817012,59.9201561]},"properties":{"name":"Tøyen stasjon"}},